KeyID,Name,Latitude,Longitude,Elevation,Subname,slug,County,Country,SubDivision,open_year,close_year,data_types,countyno,type
326,Aasleagh Hse.,53.608,-9.673,0, , ,Mayo,IRL,,1912,1952,Daily,21,2
1726,Aasleagh Lodge,53.617,-9.658,24, , ,Mayo,IRL,,1983,1989,Daily,21,2
610,Abbeydorney,52.34,-9.685,25, , ,Kerry,IRL,,1941,1971,Daily,2,2
110,Abbeyfeale,52.383,-9.283,96,Presbytery, ,Limerick,IRL,,1937,1944,Daily,5,2
410,Abbeyfeale,52.392,-9.24,77,Springmount, ,Limerick,IRL,,1917,1975,Daily,5,2
1410,Abbeyfeale,52.383,-9.3,64,St.Itas Coll., ,Limerick,IRL,,1947,1983,Daily,5,2
3310,Abbeyfeale Caherlane,52.351,-9.283,152, , ,Limerick,IRL,,2010,-999,Daily,5,2
113,Abbeyleix,52.917,-7.333,136,Laburnum Lodge, ,Laois,IRL,,1938,1942,Daily,11,2
613,Abbeyleix,52.925,-7.283,156,Blandsfort, ,Laois,IRL,,1874,1981,Daily,11,2
3313,Abbeyleix,52.907,-7.342,118, , ,Laois,IRL,,1951,1966,Daily,11,2
4713,Abbeyleix,52.907,-7.343,125, , ,Laois,IRL,,1985,2000,Daily,11,2
1230,Abbeyshrule,53.574,-7.651,66, , ,Longford,IRL,,1952,1969,Daily,18,2
334,Achill Sound,53.933,-9.917,9, , ,Mayo,IRL,,1951,1960,Daily,21,2
1035,Aclare,54.035,-8.888,70, , ,Sligo,IRL,,1942,2011,Daily,22,2
7412,Adamstown,52.224,-7.226,58, , ,Waterford,IRL,,1986,-999,Daily,3,2
2811,Adare,52.558,-8.787,6, , ,Limerick,IRL,,1951,1983,Daily,5,2
6411,Adare Manor,52.552,-8.783,9, , ,Limerick,IRL,,2004,-999,Daily,5,2
628,Ahascragh,53.402,-8.383,70,Clonbrock, ,Galway,IRL,,1874,1993,Daily,19,2
1728,Ahascragh,53.392,-8.333,49, , ,Galway,IRL,,1944,1963,Daily,19,2
5704,Aherlamore,51.843,-8.722,165, , ,Cork,IRL,,1985,-999,Daily,1,2
9012,Aherlow,52.405,-8.169,140,Mackenagh, ,Tipperary,IRL,,2005,2012,Daily,4,2
3414,Allenwood,53.287,-6.873,80,Gen.Stn., ,Kildare,IRL,,1949,1990,Daily,13,2
1203,Allihies,51.639,-10.038,40, , ,Cork,IRL,,1950,1969,Daily,1,2
2142,Altnapaste,54.807,-7.893,120, , ,Donegal,IRL,,2001,2009,Daily,26,2
2220,Annamoe,53.038,-6.258,189,Glendalough House, ,Wicklow,IRL,,1989,1993,Daily,9,2
306,Araglen,52.204,-8.104,124, , ,Cork,IRL,,1944,1958,Daily,1,2
6806,Araglen Trout Farm Ii,52.193,-8.136,214, , ,Cork,IRL,,1988,1991,Daily,1,2
1716,Ardamine House,52.633,-6.236,11,Middletown Hse, ,Wexford,IRL,,2007,2013,Daily,7,2
841,Ardara,54.756,-8.403,10,Woodhill, ,Donegal,IRL,,1950,1987,Daily,26,2
1541,Ardara,54.767,-8.417,23,Kilgole, ,Donegal,IRL,,1970,1989,Daily,26,2
2141,Ardara,54.755,-8.391,42,Lurganboy, ,Donegal,IRL,,1987,1994,Daily,26,2
438,Ardee,53.892,-6.537,14,Lisrenny, ,Louth,IRL,,1885,1971,Daily,17,2
2238,Ardee,53.851,-6.535,39,De La Salle, ,Louth,IRL,,1963,1964,Daily,17,2
1838,Ardee ,53.854,-6.543,26,St.Brigids Hosp., ,Louth,IRL,,1952,-999,Daily,17,2
2638,Ardee ,53.853,-6.568,27,Boharnamoe, ,Louth,IRL,,1968,-999,Daily,17,2
2738,Ardee O.P.W.,53.857,-6.539,30, , ,Louth,IRL,,1970,2011,Daily,17,2
709,Ardfert,52.32,-9.774,34, , ,Kerry,IRL,,1951,1975,Daily,2,2
1609,Ardfert ,52.307,-9.771,27,Liscahane, ,Kerry,IRL,,1980,-999,Daily,2,2
2009,Ardfert Ballymacquinn,52.37,-9.808,10, , ,Kerry,IRL,,1985,-999,Daily,2,2
8612,Ardfinnan ,52.288,-7.885,47,Garryduff, ,Tipperary,IRL,,1998,-999,Daily,4,2
2440,Ardnawark Barnesmore,54.704,-7.973,138, , ,Donegal,IRL,,1982,-999,Daily,26,2
1321,Ardrahan,53.153,-8.804,34, , ,Galway,IRL,,1952,1983,Daily,19,2
2821,Ardrahan ,53.142,-8.74,36,Grannagh, ,Galway,IRL,,1998,-999,Daily,19,2
2736,Ardtarmon,54.336,-8.62,10, , ,Sligo,IRL,,1985,-999,Daily,22,2
5929,Arigna Power Station,54.089,-8.072,43, , ,Roscommon,IRL,,1985,1994,Daily,20,2
1220,Arklow,52.809,-6.187,31,Shelton Abbey, ,Wicklow,IRL,,1957,1981,Daily,9,2
2720,Arklow,52.774,-6.185,41,Cooladangan House, ,Wicklow,IRL,,2001,2003,Daily,9,2
3324,Arklow ,52.834,-6.125,39,Ballyrichard House, ,Wicklow,IRL,,1984,-999,Daily,9,2
1920,Arklow Ferrybank,52.793,-6.14,-1, , ,Wicklow,IRL,,1981,1985,Daily,9,2
1020,Arklow W.W.,52.79,-6.187,42, , ,Wicklow,IRL,,1949,2015,Daily,9,2
1241,Arranmore Island,54.985,-8.502,82, , ,Donegal,IRL,,1956,1968,Daily,26,2
5137,Arva,53.904,-7.573,81,Kilgarve, ,Cavan,IRL,,1995,1996,Daily,24,2
6337,Arvagh,53.906,-7.537,100,Cormore, ,Cavan,IRL,,2010,-999,Daily,24,2
3124,Ashford ,53.02,-6.139,78,Glanmore Gardens, ,Wicklow,IRL,,1984,-999,Daily,9,2
3924,Ashford ,53.022,-6.072,12,Cronykeery, ,Wicklow,IRL,,2001,-999,Daily,9,2
1907,Ashtown,52.223,-7.458,97, , ,Waterford,IRL,,1993,1997,Daily,3,2
2911,Askeaton,52.6,-8.968,15, , ,Limerick,IRL,,1951,1972,Daily,5,2
4711,Askeaton,52.6,-8.973,5,Cloonreask, ,Limerick,IRL,,1973,1977,Daily,5,2
231,Athboy,53.617,-6.917,66,Frankville, ,Meath,IRL,,1911,1949,Daily,15,2
1031,Athboy,53.6,-6.935,71,Frayne, ,Meath,IRL,,1933,1968,Daily,15,2
3031,Athboy,53.618,-6.918,68, , ,Meath,IRL,,1951,1993,Daily,15,2
710,Athea,52.455,-9.287,106, , ,Limerick,IRL,,1941,1985,Daily,5,2
2610,Athea Templeathea,52.467,-9.242,141, , ,Limerick,IRL,,1985,-999,Daily,5,2
1121,Athenry,53.287,-8.773,38,Agr.Coll., ,Galway,IRL,,1944,1975,Daily,19,2
1221,Athenry,53.303,-8.62,69,Attymon, ,Galway,IRL,,1951,1991,Daily,19,2
1875,Athenry,53.287,-8.785,40, ,athenry,Galway,IRL,,2010,-999,Hourly|Daily,19,1
1921,Athenry,53.286,-8.773,36,Mellowes Agr.Coll., ,Galway,IRL,,1975,2012,Daily,19,2
2028,Athleague,53.567,-8.251,56, , ,Roscommon,IRL,,1951,1988,Daily,20,2
2928,Athleague,53.567,-8.272,51, , ,Roscommon,IRL,,2010,-999,Daily,20,2
129,Athlone,53.437,-7.837,65,Twyford, ,Westmeath,IRL,,1870,1960,Daily,16,2
6029,Athlone,53.425,-7.87,58,Moydrum, ,Westmeath,IRL,,1985,1990,Daily,16,2
4629,Athlone ,53.403,-7.84,72,Glynnwood, ,Westmeath,IRL,,1962,-999,Daily,16,2
1929,Athlone O.P.W.,53.42,-7.938,38, , ,Westmeath,IRL,,1898,-999,Daily,16,2
114,Athy,52.983,-6.983,53,Cromaboo Bridge, ,Kildare,IRL,,1929,1943,Daily,13,2
614,Athy,52.973,-6.823,134,Moone, ,Kildare,IRL,,1935,1958,Daily,13,2
1814,Athy,52.985,-6.973,60,Voc.Sch., ,Kildare,IRL,,1943,1981,Daily,13,2
4014,Athy,52.992,-7.002,60,Closeburn, ,Kildare,IRL,,1958,1968,Daily,13,2
5014,Athy,52.987,-6.99,61,The Maltings, ,Kildare,IRL,,1981,2002,Daily,13,2
5114,Athy,52.992,-6.985,56,St.Josephs Terrace, ,Kildare,IRL,,1981,2003,Daily,13,2
6414,Athy ,52.984,-6.972,62,Chanterlands, ,Kildare,IRL,,1993,-999,Daily,13,2
7014,Athy ,52.935,-6.94,62,Levitstown, ,Kildare,IRL,,2003,-999,Daily,13,2
6429,Aughafin,54.06,-8.084,49, , ,Roscommon,IRL,,1993,2005,Daily,20,2
120,Aughavannagh,52.905,-6.404,240,For.Stn., ,Wicklow,IRL,,1951,1961,Daily,9,2
5113,Aughnacross,52.886,-7.252,232, , ,Laois,IRL,,1994,2003,Daily,11,2
3937,Aughnasheelan ,54.084,-7.868,137,Miskawn, ,Leitrim,IRL,,1971,-999,Daily,23,2
920,Aughrim,52.854,-6.321,71, , ,Wicklow,IRL,,1949,1994,Daily,9,2
2820,Aughrim-Killacloran,52.843,-6.301,99, , ,Wicklow,IRL,,2015,-999,Daily,9,2
1720,Avoca,52.87,-6.22,37,Copper Mines, ,Wicklow,IRL,,1971,1983,Daily,9,2
1414,Bagenalstown,52.692,-6.853,97,Fenagh Hse., ,Carlow,IRL,,1866,1986,Daily,10,2
5314,Bagenalstown,52.693,-6.851,92,Fenagh Ii, ,Carlow,IRL,,1982,1989,Daily,10,2
5914,Bagenalstown,52.71,-6.888,109,Kildreenagh, ,Carlow,IRL,,1985,2001,Daily,10,2
6214,Bagenalstown,52.717,-6.958,48,Rathellin, ,Carlow,IRL,,1990,1993,Daily,10,2
2431,Bailieboro,53.917,-6.968,149, , ,Cavan,IRL,,1944,1966,Daily,24,2
4131,Bailieboro,53.926,-7.008,122,Leiter, ,Cavan,IRL,,1973,-999,Daily,24,2
3631,Bailieboro Castle,53.923,-6.988,135, , ,Cavan,IRL,,1958,1973,Daily,24,2
4031,Bailieboro ,53.94,-7.018,177,Duneena, ,Cavan,IRL,,1973,-999,Daily,24,2
832,Balbriggan,53.606,-6.187,16,Trans.Stn., ,Dublin,IRL,,1949,1968,Daily,14,2
208,Baldwinstown,52.234,-6.584,11, , ,Wexford,IRL,,1949,1994,Daily,7,2
1835,Balla,53.802,-9.123,42, , ,Mayo,IRL,,1942,1983,Daily,21,2
3413,Ballacolla,52.876,-7.441,94, , ,Laois,IRL,,1951,1964,Daily,11,2
5213,Ballacolla,52.908,-7.472,115,Farren House, ,Laois,IRL,,1996,2003,Daily,11,2
3629,Ballaghaderreen,53.9,-8.583,83,Voc.Sch., ,Roscommon,IRL,,1944,1993,Daily,20,2
1335,Ballina,54.108,-9.14,22,Trans.Stn., ,Mayo,IRL,,1942,1969,Daily,21,2
3735,Ballina ,54.106,-9.135,23,Shanaghy, ,Mayo,IRL,,1969,-999,Daily,21,2
5535,Ballina Golf Club,54.105,-9.134,19, , ,Mayo,IRL,,2000,-999,Daily,21,2
135,Ballina Rectory,54.117,-9.15,7, , ,Mayo,IRL,,1933,1944,Daily,21,2
4835,Ballina Attymass,54.052,-9.026,301, , ,Mayo,IRL,,1988,-999,Daily,21,2
1104,Ballinacurra,51.9,-8.167,15, , ,Cork,IRL,,1909,1984,Daily,1,2
5304,Ballinacurra No.2,51.891,-8.157,12, , ,Cork,IRL,,1984,2002,Daily,1,2
1636,Ballinafad,54.023,-8.337,78, , ,Sligo,IRL,,1942,1970,Daily,22,2
7129,Ballinagare,53.836,-8.384,79, , ,Roscommon,IRL,,2003,2014,Daily,20,2
2937,Ballinagh,53.933,-7.404,90, , ,Cavan,IRL,,1951,1968,Daily,24,2
2504,Ballinagree,51.967,-8.937,150,Horsemount, ,Cork,IRL,,1948,1977,Daily,1,2
2904,Ballinagree,52.017,-8.935,336,Mushera, ,Cork,IRL,,1948,2005,Daily,1,2
2429,Ballinahown,53.342,-7.85,48, , ,Westmeath,IRL,,1942,1969,Daily,16,2
1613,Ballinakill,52.883,-7.29,169,Salesian Coll., ,Laois,IRL,,1946,1966,Daily,11,2
1429,Ballinalee,53.771,-7.653,71,For.Stn., ,Longford,IRL,,1953,1963,Daily,18,2
629,Ballinameen,53.891,-8.302,86, , ,Roscommon,IRL,,1952,1955,Daily,20,2
1837,Ballinamore,54.052,-7.79,92,Maryville, ,Leitrim,IRL,,1944,1976,Daily,23,2
3337,Ballinamore,54.068,-7.772,80, , ,Leitrim,IRL,,1963,2005,Daily,23,2
3737,Ballinamore,54.039,-7.837,72,Creevy, ,Leitrim,IRL,,1968,1971,Daily,23,2
5937,Ballinamore ,54.043,-7.836,66,Creevy No.2, ,Leitrim,IRL,,2006,-999,Daily,23,2
6137,Ballinamore-Tullyoscar,54.051,-7.822,63, , ,Leitrim,IRL,,2009,-999,Daily,23,2
2329,Ballinamuck,53.852,-7.703,97, , ,Longford,IRL,,1930,1975,Daily,18,2
506,Ballinamult,52.207,-7.725,122, , ,Waterford,IRL,,1944,1956,Daily,3,2
5506,Ballinamult ,52.208,-7.742,166,Doon, ,Waterford,IRL,,1984,-999,Daily,3,2
828,Ballinasloe,53.323,-8.203,37,St.Brigids Hosp., ,Galway,IRL,,1941,1975,Daily,19,2
2328,Ballinasloe,53.322,-8.2,37,The Pines, ,Galway,IRL,,1975,1988,Daily,19,2
2428,Ballinasloe,53.335,-8.256,43,Kilclooney, ,Galway,IRL,,1976,1979,Daily,19,2
2728,Ballinasloe,53.336,-8.193,60,St.Endas, ,Galway,IRL,,1988,1993,Daily,19,2
2628,Ballinasloe ,53.338,-8.251,40,Derrymullen, ,Galway,IRL,,1985,-999,Daily,19,2
2828,Ballinasloe ,53.308,-8.188,35,Pollboy Lock, ,Galway,IRL,,2002,-999,Daily,19,2
720,Ballinastoe,53.105,-6.222,312, , ,Wicklow,IRL,,1948,1982,Daily,9,2
2304,Ballincurrig,51.986,-8.222,95, , ,Cork,IRL,,1944,1969,Daily,1,2
6204,Ballincurrig ,52.007,-8.2,149,Peafield, ,Cork,IRL,,1995,-999,Daily,1,2
328,Ballinderry,53.702,-8.203,110, , ,Roscommon,IRL,,1944,1963,Daily,20,2
3327,Ballindine,53.668,-8.955,58, , ,Mayo,IRL,,1952,1984,Daily,21,2
2602,Ballineen,51.734,-8.942,38, , ,Cork,IRL,,1950,1987,Daily,1,2
4002,Ballineen,51.734,-8.951,38, , ,Cork,IRL,,1985,2012,Daily,1,2
4602,Ballineen ,51.725,-8.973,53,Carbery, ,Cork,IRL,,1995,-999,Daily,1,2
5002,Ballineen Caherkirky,51.688,-8.985,188, , ,Cork,IRL,,1999,-999,Daily,1,2
4613,Ballingarry,52.593,-7.484,127,Jessefield House, ,Tipperary,IRL,,1984,1993,Daily,4,2
1013,Ballingarry Sth.,52.585,-7.537,201, , ,Tipperary,IRL,,1943,1983,Daily,4,2
3004,Ballingeary ,51.85,-9.233,93,Voc.Sch., ,Cork,IRL,,1948,-999,Daily,1,2
104,Ballinhassig Rectory,51.817,-8.533,86, , ,Cork,IRL,,1941,1943,Daily,1,2
428,Ballinlough,53.738,-8.637,87,Disp. Res., ,Roscommon,IRL,,1944,1956,Daily,20,2
1727,Ballinrobe,53.622,-9.223,35, , ,Mayo,IRL,,1941,1984,Daily,21,2
3827,Ballinrobe,53.636,-9.255,24,Creagh, ,Mayo,IRL,,1962,1990,Daily,21,2
903,Ballinskelligs,51.821,-10.271,0, , ,Kerry,IRL,,1949,1972,Daily,2,2
4105,Ballinskelligs The Glen,51.851,-10.325,33, , ,Kerry,IRL,,1985,-999,Daily,2,2
2102,Ballinspittle,51.667,-8.592,38, , ,Cork,IRL,,1949,1995,Daily,1,2
5702,Ballinspittle ,51.675,-8.59,81,Kilkerran, ,Cork,IRL,,2012,-999,Daily,1,2
1736,Ballintogher,54.201,-8.358,76, , ,Sligo,IRL,,1942,1970,Daily,22,2
940,Ballintra,54.573,-8.122,54, , ,Donegal,IRL,,1948,1991,Daily,26,2
4402,Ballintrideen,51.76,-8.441,74, , ,Cork,IRL,,1994,2005,Daily,1,2
1228,Ballintubber,53.718,-8.407,71, , ,Roscommon,IRL,,1944,1997,Daily,20,2
3012,Ballinure,52.558,-7.758,168, , ,Tipperary,IRL,,1943,1984,Daily,4,2
1731,Ballivor,53.533,-6.967,67, , ,Meath,IRL,,1943,2002,Daily,15,2
2731,Ballivor ,53.533,-7.024,77,Hill Of Down, ,Westmeath,IRL,,1951,-999,Daily,16,2
1815,Ballon,52.739,-6.77,87, , ,Carlow,IRL,,1949,1980,Daily,10,2
937,Ballybay,54.118,-6.903,84,Trans.Stn., ,Monaghan,IRL,,1942,2001,Daily,25,2
6037,Ballybay Wetlands,54.122,-6.921,76, , ,Monaghan,IRL,,2008,2013,Daily,25,2
6623,Ballyboden,53.272,-6.303,128, , ,Dublin,IRL,,1966,-999,Daily,14,2
342,Ballybofey,54.737,-7.925,173,Barnesmore Gap, ,Donegal,IRL,,1948,1964,Daily,26,2
1142,Ballybofey,54.754,-7.892,163,Lough Mourne, ,Donegal,IRL,,1964,1987,Daily,26,2
1842,Ballybofey Lough Mourne Ii,54.756,-7.885,165, , ,Donegal,IRL,,1987,2003,Daily,26,2
1642,Ballybofey Navenny,54.789,-7.77,52, , ,Donegal,IRL,,1982,-999,Daily,26,2
4414,Ballybrittas,53.107,-7.137,73, , ,Laois,IRL,,1964,1983,Daily,11,2
1435,Ballycastle,54.273,-9.37,87, , ,Mayo,IRL,,1942,1988,Daily,21,2
237,Ballyconnell,54.118,-7.575,47, , ,Cavan,IRL,,1942,1959,Daily,24,2
4637,Ballyconnell ,54.104,-7.568,65,Mullaghduff, ,Cavan,IRL,,1985,-999,Daily,24,2
634,Ballycroy,54,-9.82,21, , ,Mayo,IRL,,1942,1983,Daily,21,2
2834,Ballycroy-Knockmoyleen,54.054,-9.839,43, , ,Mayo,IRL,,2012,-999,Daily,21,2
308,Ballycullane,52.273,-6.837,62, , ,Wexford,IRL,,1949,1984,Daily,7,2
622,Ballycumber,53.333,-7.733,67,Belair, ,Offaly,IRL,,1923,1946,Daily,12,2
722,Ballycumber,53.322,-7.718,49,Boher Sch., ,Offaly,IRL,,1947,1951,Daily,12,2
922,Ballycumber,53.322,-7.685,46, , ,Offaly,IRL,,1952,1956,Daily,12,2
3122,Ballycumber,53.341,-7.717,61,Bord Na Mona, ,Offaly,IRL,,1984,2000,Daily,12,2
1702,Ballydehob,51.556,-9.457,24, , ,Cork,IRL,,1948,1985,Daily,1,2
1006,Ballydesmond,52.175,-9.237,199, , ,Cork,IRL,,1941,1964,Daily,1,2
3906,Ballydesmond,52.173,-9.223,218,East, ,Cork,IRL,,1964,1967,Daily,1,2
6006,Ballydesmond,52.175,-9.24,206, , ,Kerry,IRL,,1985,-999,Daily,2,2
5106,Ballydineen Doneraile,52.192,-8.585,115, , ,Cork,IRL,,1982,1984,Daily,1,2
810,Ballyduff,52.452,-9.658,32, , ,Kerry,IRL,,1941,2000,Daily,2,2
2124,Ballyedmonduff,53.236,-6.22,261, , ,Dublin,IRL,,1967,1985,Daily,14,2
3524,Ballyedmonduff House,53.233,-6.222,295, , ,Dublin,IRL,,1985,-999,Daily,14,2
2621,Ballyfa,53.288,-8.508,79, , ,Galway,IRL,,1993,2013,Daily,19,2
409,Ballyferriter,52.159,-10.403,74, , ,Kerry,IRL,,1950,1989,Daily,2,2
3713,Ballyfin,53.053,-7.423,148,Patrician Coll., ,Laois,IRL,,1958,1963,Daily,11,2
1528,Ballyforan,53.468,-8.259,45, , ,Roscommon,IRL,,1944,1983,Daily,20,2
2528,Ballyforan ,53.437,-8.302,47,Bord Na Mona, ,Galway,IRL,,1976,-999,Daily,19,2
728,Ballygar,53.538,-8.305,54,Aughrane, ,Galway,IRL,,1931,1968,Daily,19,2
2228,Ballygar,53.52,-8.322,48, , ,Galway,IRL,,1969,2011,Daily,19,2
1427,Ballyglass,53.735,-9.167,42, , ,Mayo,IRL,,1941,1984,Daily,21,2
927,Ballyglunin Hse.,53.422,-8.807,43, , ,Galway,IRL,,1946,1961,Daily,19,2
6311,Ballyhahill Glenbawn,52.507,-9.204,219, , ,Limerick,IRL,,2000,-999,Daily,5,2
675,Ballyhaise,54.051,-7.306,78, ,ballyhaise,Cavan,IRL,,2003,-999,Hourly|Daily,24,1
737,Ballyhaise,54.051,-7.306,78,Agr.Coll., ,Cavan,IRL,,1932,2005,Daily,24,2
2913,Ballyhale,52.467,-7.201,60, , ,Kilkenny,IRL,,1946,1990,Daily,8,2
2827,Ballyhaunis,53.758,-8.773,73,Voc.Sch., ,Mayo,IRL,,1944,1972,Daily,21,2
5135,Ballyhaunis,53.806,-8.836,79,Coogue South, ,Mayo,IRL,,1987,1990,Daily,21,2
5235,Ballyhaunis,53.817,-8.809,128,Aghamore, ,Mayo,IRL,,1990,1991,Daily,21,2
5727,Ballyhaunis-Lavallyroe,53.706,-8.757,86, , ,Mayo,IRL,,2014,-999,Daily,21,2
427,Ballyhean,53.79,-9.308,34, , ,Mayo,IRL,,1941,1962,Daily,21,2
809,Ballyheigue,52.387,-9.835,0, , ,Kerry,IRL,,1951,1997,Daily,2,2
7906,Ballyhooly ,52.124,-8.406,131,Castleblagh, ,Cork,IRL,,2001,-999,Daily,1,2
430,Ballyjamesduff,53.858,-7.203,124, , ,Cavan,IRL,,1942,1984,Daily,24,2
2030,Ballyjamesduff ,53.855,-7.201,133,Kilcully, ,Cavan,IRL,,1997,-999,Daily,24,2
2311,Ballylanders,52.368,-8.34,173, , ,Limerick,IRL,,1943,1985,Daily,5,2
1411,Ballylongford,52.538,-9.472,17, , ,Kerry,IRL,,1941,1995,Daily,2,2
3412,Ballylooby,52.322,-7.983,59, , ,Tipperary,IRL,,1943,1969,Daily,4,2
3612,Ballymacarbery,52.267,-7.717,61, , ,Waterford,IRL,,1943,2014,Daily,3,2
105,Ballymacelligot Rectory,52.25,-9.583,29, , ,Kerry,IRL,,1929,1944,Daily,2,2
4404,Ballymacoda ,51.876,-7.919,55,Mountcotton, ,Cork,IRL,,1976,-999,Daily,1,2
130,Ballymahon,53.557,-7.717,55,Newcastle, ,Longford,IRL,,1904,1969,Daily,18,2
1430,Ballymahon,53.567,-7.769,55,Voc.Sch., ,Longford,IRL,,1957,1994,Daily,18,2
2924,Ballyman Bray,53.209,-6.153,117, , ,Wicklow,IRL,,1979,2001,Daily,9,2
2128,Ballymoe,53.691,-8.455,62, , ,Galway,IRL,,1952,1997,Daily,19,2
535,Ballymoghany,54.175,-9.042,79, , ,Sligo,IRL,,1942,1951,Daily,22,2
330,Ballymore,53.488,-7.675,77, , ,Westmeath,IRL,,1942,1984,Daily,16,2
6729,Ballymore,53.939,-8.323,122, , ,Roscommon,IRL,,1995,-999,Daily,20,2
3823,Ballymore Eustace D.C.W.W.,53.122,-6.603,136, , ,Kildare,IRL,,1944,-999,Daily,13,2
1136,Ballymote,54.087,-8.508,68, , ,Sligo,IRL,,1942,1969,Daily,22,2
1836,Ballymote,54.088,-8.508,69,Voc.Sch., ,Sligo,IRL,,1957,1976,Daily,22,2
3136,Ballymote,54.053,-8.52,59,Lissananny, ,Sligo,IRL,,1989,1992,Daily,22,2
3536,Ballymote,54.021,-8.473,87,Culfadda, ,Sligo,IRL,,2002,2002,Daily,22,2
4136,Ballymote Keenaghan,54.075,-8.505,82, , ,Sligo,IRL,,2015,-999,Daily,22,2
2136,Ballymote Rathmullen,54.055,-8.506,61, , ,Sligo,IRL,,1981,2015,Daily,22,2
4036,Ballymote-Lavagh,54.102,-8.684,114, , ,Sligo,IRL,,2013,-999,Daily,22,2
5115,Ballymurn,52.439,-6.422,65,Tilhill, ,Wexford,IRL,,1994,1997,Daily,7,2
730,Ballynacargy,53.575,-7.523,71, , ,Westmeath,IRL,,1944,1975,Daily,16,2
1630,Ballynacarrigy,53.585,-7.535,79,Rock Brookgs, ,Westmeath,IRL,,1975,1993,Daily,16,2
1730,Ballynacarrigy,53.539,-7.572,79,Rath Castle, ,Westmeath,IRL,,1976,1994,Daily,16,2
1325,Ballynahinch,53.47,-9.873,13,For.Stn., ,Galway,IRL,,1962,1985,Daily,19,2
3824,Ballynahinch,53.073,-6.168,264, , ,Wicklow,IRL,,1998,-999,Daily,9,2
325,Ballynahinch Castle,53.457,-9.858,37, , ,Galway,IRL,,1913,1963,Daily,19,2
426,Ballynakill Rectory,53.54,-10.002,23, , ,Galway,IRL,,1935,1960,Daily,19,2
2211,Ballyneety,52.592,-8.542,76, , ,Limerick,IRL,,1943,1990,Daily,5,2
2006,Ballynoe,52.056,-8.1,71, , ,Cork,IRL,,1944,1996,Daily,1,2
3512,Ballyporeen,52.268,-8.09,78, , ,Tipperary,IRL,,1943,1982,Daily,4,2
2013,Ballyragget,52.787,-7.325,74, , ,Kilkenny,IRL,,1946,1984,Daily,8,2
5313,Ballyroan ,52.92,-7.324,145,Oatlands, ,Laois,IRL,,2000,-999,Daily,11,2
2337,Ballyshannon,54.487,-8.1,47,Cliff Hse., ,Donegal,IRL,,1945,1991,Daily,26,2
4737,Ballyshannon,54.535,-8.135,81,Laheen, ,Donegal,IRL,,1991,1999,Daily,26,2
2237,Ballyshannon ,54.492,-8.172,32,Cathleens Fall, ,Donegal,IRL,,1945,-999,Daily,26,2
3237,Ballyshannon ,54.488,-8.153,44,Cherrymount, ,Donegal,IRL,,1954,-999,Daily,26,2
6112,Ballyshonock Reservoir,52.233,-7.322,79, , ,Waterford,IRL,,1972,1986,Daily,3,2
1914,Ballytore,53.005,-6.805,108, , ,Kildare,IRL,,1944,1990,Daily,13,2
1235,Ballyvary,53.89,-9.15,38, , ,Mayo,IRL,,1942,1984,Daily,21,2
1521,Ballyvaughan,53.108,-9.142,18, , ,Clare,IRL,,1960,1977,Daily,6,2
1618,Ballyvaughan,53.056,-9.192,185,Corkscrew Hill, ,Clare,IRL,,1961,1979,Daily,6,2
2321,Ballyvaughan Ballyconry,53.12,-9.168,16, , ,Clare,IRL,,1984,-999,Daily,6,2
1704,Ballyvourney,51.941,-9.167,193, , ,Cork,IRL,,1942,1985,Daily,1,2
2604,Ballyvourney ,51.887,-9.142,126,Clountycarty, ,Cork,IRL,,1948,2017,Daily,1,2
2604,Ballyvourney ,51.887,-9.142,126,Clountycarty, ,Cork,IRL,,1948,-999,Daily,1,2
3314,Ballywilliam,52.45,-6.855,81, , ,Wexford,IRL,,1946,1984,Daily,7,2
3715,Baltinglass,52.936,-6.706,117, , ,Wicklow,IRL,,1976,1988,Daily,9,2
1719,Banagher,53.19,-7.99,35,Canal Hse., ,Offaly,IRL,,1928,2015,Daily,12,2
6319,Banagher Malting Company,53.171,-7.973,43, , ,Offaly,IRL,,1984,2005,Daily,12,2
502,Bandon,51.75,-8.75,82,Floraville, ,Cork,IRL,,1940,1948,Daily,1,2
1502,Bandon,51.75,-8.737,56,Voc.Sch., ,Cork,IRL,,1948,1972,Daily,1,2
4102,Bandon,51.742,-8.751,53,Coolfadda, ,Cork,IRL,,1985,2000,Daily,1,2
5102,Bandon,51.739,-8.734,60,Hillview, ,Cork,IRL,,1999,2010,Daily,1,2
5602,Bandon ,51.738,-8.753,75,The-Gully, ,Cork,IRL,,2012,-999,Daily,1,2
5502,Bandon Waterworks,51.743,-8.807,40, , ,Cork,IRL,,2010,-999,Daily,1,2
434,Bangor Erris,54.14,-9.74,26, , ,Mayo,IRL,,1942,1982,Daily,21,2
1634,Bangor Erris,54.141,-9.802,5,Kiltane, ,Mayo,IRL,,1976,2004,Daily,21,2
2134,Bangor Erris,54.106,-9.757,34,Muingnahalloona, ,Mayo,IRL,,1988,1991,Daily,21,2
1834,Bangor Erris ,54.14,-9.738,26,Main St., ,Mayo,IRL,,1986,-999,Daily,21,2
1108,Bannow,52.207,-6.786,15, , ,Wexford,IRL,,1997,-999,Daily,7,2
3312,Bansha,52.452,-8.087,74,Chair Hill For.Stn., ,Tipperary,IRL,,1943,1971,Daily,4,2
5012,Bansha ,52.404,-8.12,182,Aherlow W.W., ,Tipperary,IRL,,1955,-999,Daily,4,2
2206,Banteer,52.125,-8.887,81, , ,Cork,IRL,,1944,1970,Daily,1,2
7506,Banteer,52.076,-8.837,183,Glensouth, ,Cork,IRL,,1997,2015,Daily,1,2
6306,Banteer Lyre,52.075,-8.852,272, , ,Cork,IRL,,1985,-999,Daily,1,2
301,Bantry,51.675,-9.451,55,Voc.Sch., ,Cork,IRL,,1941,1973,Daily,1,2
401,Bantry,51.707,-9.353,132,Drumclugh, ,Cork,IRL,,1948,1952,Daily,1,2
501,Bantry,51.718,-9.333,269,Glancreagh, ,Cork,IRL,,1954,1957,Daily,1,2
1101,Bantry,51.718,-9.472,0,Ardnagashel, ,Cork,IRL,,1953,1989,Daily,1,2
1201,Bantry,51.684,-9.44,24,St.Josephs Hosp., ,Cork,IRL,,1974,1990,Daily,1,2
1801,Bantry,51.671,-9.443,120,Dromleigh, ,Cork,IRL,,1992,1996,Daily,1,2
2101,Bantry,51.643,-9.553,211,Rooska, ,Cork,IRL,,1994,1996,Daily,1,2
2201,Bantry ,51.708,-9.417,65,Shandrum, ,Cork,IRL,,1999,-999,Daily,1,2
2401,Bantry-Letterlickey,51.635,-9.439,112, , ,Cork,IRL,,2009,2012,Daily,1,2
2501,Bantry-Maulikeeve,51.734,-9.359,163, , ,Cork,IRL,,2015,-999,Daily,1,2
3006,Barna,52.167,-9.267,216, , ,Kerry,IRL,,1950,1985,Daily,2,2
2127,Barnaderg,53.473,-8.72,74, , ,Galway,IRL,,1941,1988,Daily,19,2
2634,Barnatra,54.239,-9.808,75,Knocknalower, ,Mayo,IRL,,2005,2007,Daily,21,2
1324,Barndarrig,52.908,-6.107,36, , ,Wicklow,IRL,,1949,1969,Daily,9,2
2505,Barraduff,52.055,-9.337,106, , ,Kerry,IRL,,1951,1988,Daily,2,2
9123,Barrockstown,53.419,-6.609,76, , ,Meath,IRL,,1997,2006,Daily,15,2
7006,Bartlemy,52.037,-8.259,100, , ,Cork,IRL,,1992,-999,Daily,1,2
3605,Bawnaskehy Castleisland,52.201,-9.436,53, , ,Kerry,IRL,,1982,-999,Daily,2,2
805,Beaufort,52.067,-9.635,47, , ,Kerry,IRL,,1941,1995,Daily,2,2
5627,Belcarra,53.783,-9.225,32,Carrajames, ,Mayo,IRL,,2003,-999,Daily,21,2
4327,Belclare,53.467,-8.959,38,Agr.Res.Stn., ,Galway,IRL,,1977,1998,Daily,19,2
4535,Belderrig,54.306,-9.567,63, , ,Mayo,IRL,,1986,-999,Daily,21,2
1223,Belgard Castle,53.302,-6.387,124, , ,Dublin,IRL,,1915,1963,Daily,14,2
5402,Belgooly,51.726,-8.491,20, , ,Cork,IRL,,2004,-999,Daily,1,2
534,Bellacorrick,54.118,-9.575,76, , ,Mayo,IRL,,1942,1983,Daily,21,2
934,Bellacorrick,54.117,-9.542,86,Moneynierin, ,Mayo,IRL,,1954,2004,Daily,21,2
1234,Bellacorrick,54.158,-9.522,91,Lachtanvack, ,Mayo,IRL,,1968,2004,Daily,21,2
1334,Bellacorrick,54.142,-9.568,80,Srahnakilly, ,Mayo,IRL,,1968,2004,Daily,21,2
1734,Bellacorrick,54.152,-9.887,20,Nahelly, ,Mayo,IRL,,1981,1984,Daily,21,2
3535,Bellacorrick,54.117,-9.5,83,Shanvolahan, ,Mayo,IRL,,1968,2004,Daily,21,2
707,Belle Lake,52.19,-7.021,76,Filter Stn., ,Waterford,IRL,,1957,2014,Daily,3,2
1632,Bellewstown,53.639,-6.337,90, , ,Meath,IRL,,1975,2005,Daily,15,2
2332,Bellewstown ,53.638,-6.356,84,Collierstown, ,Meath,IRL,,1997,-999,Daily,15,2
3322,Belmont Mills,53.241,-7.892,48, , ,Offaly,IRL,,1986,2004,Daily,12,2
822,Belmont O.P.W.,53.242,-7.888,52, , ,Offaly,IRL,,1948,1951,Daily,12,2
2375,Belmullet,54.223,-10.004,0, ,belmullet,Mayo,IRL,,2012,-999,Hourly|Daily,21,1
1937,Belturbet,54.1,-7.438,70,Voc.Sch., ,Cavan,IRL,,1944,1989,Daily,24,2
5037,Belturbet ,54.134,-7.437,52,Naughan, ,Cavan,IRL,,1993,-999,Daily,24,2
2137,Benbrack Mtn.,54.09,-7.883,153,Pottore, ,Leitrim,IRL,,1944,1971,Daily,23,2
2213,Bennettsbridge,52.587,-7.183,31, , ,Kilkenny,IRL,,1946,1993,Daily,8,2
1619,Birdhill-Parteen Weir,52.757,-8.47,38, , ,Tipperary,IRL,,1923,2014,Daily,4,2
919,Birr,53.09,-7.903,59,Johns Mall, ,Offaly,IRL,,1939,1955,Daily,12,2
4919,Birr,53.087,-7.887,67, , ,Offaly,IRL,,1954,2009,Hourly|Daily,12,1
337,Blacklion,54.288,-7.873,58, , ,Cavan,IRL,,1942,1961,Daily,24,2
8223,Blackrock,53.275,-6.172,56, , ,Dublin,IRL,,1982,1997,Daily,14,2
134,Blacksod Point S.W.S.,54.102,-10.068,0, , ,Mayo,IRL,,1900,1956,Daily,21,2
616,Blackwater,52.441,-6.342,21, , ,Wexford,IRL,,1949,1988,Daily,7,2
2522,Blackwater,53.273,-7.992,49,Bord Na Mona, ,Offaly,IRL,,1962,2005,Daily,12,2
2003,Blackwater Fishery,51.857,-9.752,25, , ,Kerry,IRL,,1999,2000,Daily,2,2
8723,Blanchardstown,53.374,-6.354,60,Auburn Ave, ,Dublin,IRL,,1993,1996,Daily,14,2
2209,Blennerville,52.239,-9.726,42,Curragraigue, ,Kerry,IRL,,1996,2010,Daily,2,2
5023,Blessington,53.168,-6.534,207, , ,Wicklow,IRL,,1949,1990,Daily,9,2
8623,Blessington ,53.192,-6.503,199,Hempstown, ,Wicklow,IRL,,1990,-999,Daily,9,2
1544,Bloody Foreland,55.139,-8.223,30, , ,Donegal,IRL,,1984,-999,Daily,26,2
5906,Boherboe,52.169,-9.091,183, , ,Cork,IRL,,1985,1990,Daily,1,2
1206,Boherbue,52.155,-9.07,200, , ,Cork,IRL,,1944,1972,Daily,1,2
735,Bonniconlon,54.107,-9.023,75, , ,Mayo,IRL,,1942,1988,Daily,21,2
821,Bookeen,53.257,-8.622,43, , ,Galway,IRL,,1943,1976,Daily,19,2
4615,Boolavogue-Knockavocca,52.555,-6.451,75, , ,Wexford,IRL,,1987,-999,Daily,7,2
2322,Boora,53.223,-7.725,52, , ,Offaly,IRL,,1950,2006,Daily,12,2
2414,Borris,52.602,-6.925,66, , ,Carlow,IRL,,1944,1991,Daily,10,2
1413,Borris In Ossory,52.937,-7.623,110, , ,Laois,IRL,,1946,1981,Daily,11,2
519,Borrisokane,53.067,-8.183,35,Slevyr, ,Tipperary,IRL,,1926,1947,Daily,4,2
3419,Borrisokane,52.992,-8.122,70, , ,Tipperary,IRL,,1943,1988,Daily,4,2
2812,Borrisoleigh,52.752,-7.955,100, , ,Tipperary,IRL,,1943,1973,Daily,4,2
1329,Boyle,53.975,-8.208,64,Rockingham, ,Roscommon,IRL,,1945,1951,Daily,20,2
3529,Boyle,53.97,-8.29,67,Voc.Sch., ,Roscommon,IRL,,1944,1971,Daily,20,2
7329,Boyle,53.974,-8.303,72,Lowpark, ,Roscommon,IRL,,2007,2012,Daily,20,2
5229,Boyle ,53.968,-8.303,67,Marian Rd., ,Roscommon,IRL,,1971,-999,Daily,20,2
5423,Brannockstown,53.122,-6.701,121,Sallymount, ,Kildare,IRL,,1957,1971,Daily,13,2
1424,Bray,53.202,-6.104,17, , ,Wicklow,IRL,,1949,1994,Daily,9,2
2524,Bray,53.19,-6.1,44,Avoca Ave., ,Wicklow,IRL,,1978,1994,Daily,9,2
7923,Brittas ,53.251,-6.451,252,Glenaraneen, ,Dublin,IRL,,1975,-999,Daily,14,2
1711,Broadford,52.803,-8.633,32, , ,Clare,IRL,,1943,1964,Daily,6,2
1610,Brosna,52.254,-9.3,255,Mt.Eagle, ,Kerry,IRL,,1947,2004,Daily,2,2
1710,Brosna,52.308,-9.269,141, , ,Kerry,IRL,,1947,1992,Daily,2,2
3110,Brosna,52.273,-9.292,198,Scalp, ,Kerry,IRL,,2004,2013,Daily,2,2
2640,Bruckless,54.635,-8.385,12, , ,Donegal,IRL,,1985,-999,Daily,26,2
3711,Bruff,52.474,-8.54,68, , ,Limerick,IRL,,1952,1997,Daily,5,2
341,Bunbeg,55.057,-8.304,18, , ,Donegal,IRL,,1948,1959,Daily,26,2
1915,Bunclody,52.653,-6.642,43, , ,Wexford,IRL,,1949,1972,Daily,7,2
3315,Bunclody,52.654,-6.658,49,Carrickduffg.S., ,Carlow,IRL,,1973,1984,Daily,10,2
4215,Bunclody-Corragh,52.676,-6.604,266, , ,Wexford,IRL,,1984,-999,Daily,7,2
543,Buncrana,55.133,-7.452,21, , ,Donegal,IRL,,1948,1984,Daily,26,2
143,Buncrana Rectory,55.133,-7.45,20, , ,Donegal,IRL,,1929,1944,Daily,26,2
340,Bundoran,54.473,-8.272,21, , ,Donegal,IRL,,1942,1952,Daily,26,2
1740,Bundoran,54.472,-8.273,18,Magheracarg.S., ,Donegal,IRL,,1953,1994,Daily,26,2
2434,Bunnahowen,54.174,-9.907,35,Muingnachree, ,Mayo,IRL,,2003,2007,Daily,21,2
1938,Bush,53.992,-6.188,30,Voc.Sch., ,Louth,IRL,,1954,1968,Daily,17,2
1606,Buttevant,52.223,-8.67,92, , ,Cork,IRL,,1944,2002,Daily,1,2
3111,Caherconlish,52.588,-8.468,70, , ,Limerick,IRL,,1951,1993,Daily,5,2
1112,Cahir,52.351,-8.006,84,Scartnaglorane For., ,Tipperary,IRL,,1951,1956,Daily,4,2
4612,Cahir ,52.374,-7.919,50,Voc.Sch., ,Tipperary,IRL,,1951,-999,Daily,4,2
9312,Cahir ,52.406,-7.987,72,Toureen, ,Tipperary,IRL,,2006,-999,Daily,4,2
412,Cahir Abbey,52.383,-7.923,42, , ,Tipperary,IRL,,1897,1951,Daily,4,2
4812,Cahir Park,52.355,-7.922,59, , ,Tipperary,IRL,,1953,1980,Daily,4,2
6412,Cahir Park Ii,52.353,-7.924,42, , ,Tipperary,IRL,,1980,-999,Daily,4,2
1116,Cahore ,52.558,-6.207,1,Kilmichael House, ,Wexford,IRL,,1984,-999,Daily,7,2
4915,Caim,52.509,-6.656,61,Monglass, ,Wexford,IRL,,1992,2000,Daily,7,2
2313,Callan,52.538,-7.384,69,St.Augustine St., ,Kilkenny,IRL,,1946,1984,Daily,8,2
4313,Callan,52.538,-7.387,73,Green Street, ,Kilkenny,IRL,,1984,1990,Daily,8,2
4813,Callan,52.525,-7.35,67,Mallardstown, ,Kilkenny,IRL,,1990,2013,Daily,8,2
4113,Callan ,52.534,-7.418,76,Moonarche, ,Kilkenny,IRL,,1978,-999,Daily,8,2
209,Camp,52.219,-9.903,59, , ,Kerry,IRL,,1941,1982,Daily,2,2
1409,Camp,52.223,-9.95,10,Deelis, ,Kerry,IRL,,1979,1999,Daily,2,2
2109,Camp,52.202,-9.935,114,Glannagalt, ,Kerry,IRL,,1993,1997,Daily,2,2
3114,Campile,52.286,-6.937,19, , ,Wexford,IRL,,1946,1988,Daily,7,2
2225,Camus,53.371,-9.556,17, , ,Galway,IRL,,2001,-999,Daily,19,2
3002,Cape Clear,51.438,-9.503,55, , ,Cork,IRL,,1963,1963,Daily,1,2
1906,Cappagh,52.118,-7.737,25, , ,Waterford,IRL,,1944,1969,Daily,3,2
3019,Cappamore,52.608,-8.337,58, , ,Limerick,IRL,,1943,1987,Daily,5,2
4205,Cappanalea Glencar,52.041,-9.853,153, , ,Kerry,IRL,,1986,1989,Daily,2,2
3219,Cappawhite,52.583,-8.167,135, , ,Tipperary,IRL,,1943,1983,Daily,4,2
1106,Cappoquin,52.187,-7.857,210,Mt.Melleray, ,Waterford,IRL,,1944,2013,Daily,3,2
8106,Cappoquin ,52.14,-7.841,20,Station House, ,Waterford,IRL,,2001,-999,Daily,3,2
3106,Cappoquin Hse.,52.151,-7.851,66, , ,Waterford,IRL,,1951,1990,Daily,3,2
2018,Carheeny Beg,52.991,-8.825,40, , ,Galway,IRL,,1993,-999,Daily,19,2
1638,Carlingford,54.038,-6.186,8, , ,Louth,IRL,,1951,1990,Daily,17,2
1214,Carlow,52.851,-6.923,57,Sugar Factory, ,Carlow,IRL,,1953,1960,Daily,10,2
2114,Carlow,52.835,-6.938,49,Trans.Stn., ,Carlow,IRL,,1944,1971,Daily,10,2
4214,Carlow,52.842,-6.92,58,Agr.Res.Stn., ,Carlow,IRL,,1960,1968,Daily,10,2
4814,Carlow,52.857,-6.909,57,Oak Park, ,Carlow,IRL,,1967,2007,Daily,10,2
925,Carna,53.322,-9.823,2, , ,Galway,IRL,,1950,1985,Daily,19,2
1625,Carna,53.308,-9.823,0,Marine Biology Stn., ,Galway,IRL,,1967,2003,Daily,19,2
2227,Carndolla,53.402,-9.009,20, , ,Galway,IRL,,1941,-999,Daily,19,2
245,Carndonagh,55.255,-7.237,48,Rocksmount, ,Donegal,IRL,,1934,1984,Daily,26,2
645,Carndonagh ,55.255,-7.237,48,Rocksmount Ii, ,Donegal,IRL,,1984,-999,Daily,26,2
3815,Carne,52.187,-6.35,0,Churchtown, ,Wexford,IRL,,1977,1990,Daily,7,2
1615,Carnew,52.707,-6.502,80,Voc.Sch., ,Wicklow,IRL,,1949,1993,Daily,9,2
5015,Carnew-Cronyhorn,52.717,-6.507,68, , ,Wicklow,IRL,,1993,-999,Daily,9,2
3615,Carnsore Point,52.173,-6.357,0, , ,Wexford,IRL,,1975,1976,Daily,7,2
725,Carraroe,53.259,-9.601,11, , ,Galway,IRL,,1950,1985,Daily,19,2
740,Carrick,54.655,-8.626,52, , ,Donegal,IRL,,1948,1996,Daily,26,2
1540,Carrick,54.704,-8.507,238,Crove, ,Donegal,IRL,,1952,1965,Daily,26,2
312,Carrick On Suir,52.335,-7.435,161,Seskin, ,Waterford,IRL,,1900,1950,Daily,3,2
529,Carrick-On-Shannon,53.95,-8.083,59,Monastery, ,Leitrim,IRL,,1935,1948,Daily,23,2
2729,Carrick-On-Shannon E.S.B.,53.937,-8.107,46, , ,Roscommon,IRL,,1942,1993,Daily,20,2
6812,Carrick-On-Suir Ii,52.338,-7.403,42, , ,Tipperary,IRL,,1983,-999,Daily,4,2
608,Carrickbyrne,52.358,-6.758,73, , ,Wexford,IRL,,1949,1990,Daily,7,2
238,Carrickmacross,53.974,-6.722,41,Voc.Sch., ,Monaghan,IRL,,1947,1958,Daily,25,2
2038,Carrickmacross ,53.972,-6.753,53,Dunoge, ,Monaghan,IRL,,1958,-999,Daily,25,2
3604,Carrigadrohid ,51.892,-8.858,76,Genstn, ,Cork,IRL,,1953,-999,Daily,1,2
3411,Carrigaholt,52.6,-9.705,13, , ,Clare,IRL,,1951,1983,Daily,6,2
3204,Carrigaline,51.809,-8.388,33, , ,Cork,IRL,,1950,1994,Daily,1,2
6004,Carrigaline ,51.804,-8.372,53,Kilnagleary, ,Cork,IRL,,1992,-999,Daily,1,2
1237,Carrigallen,53.972,-7.642,92, , ,Leitrim,IRL,,1942,2010,Daily,23,2
6237,Carrigallen-Calloughs,53.984,-7.655,79, , ,Leitrim,IRL,,2010,-999,Daily,23,2
1942,Carrigans-Kildrum,54.974,-7.409,33, , ,Donegal,IRL,,1996,-999,Daily,26,2
1344,Carrigart,55.155,-7.785,113,Drumreen, ,Donegal,IRL,,1968,1969,Daily,26,2
2204,Carrignavar,51.987,-8.473,106, , ,Cork,IRL,,1944,1966,Daily,1,2
4104,Carrignavar Coll.,51.983,-8.469,111, , ,Cork,IRL,,1966,1973,Daily,1,2
4504,Carrigtuohill,51.937,-8.272,136,Tibbotstown, ,Cork,IRL,,1976,1979,Daily,1,2
204,Carrigtuohill Rectory,51.917,-8.167,12, , ,Cork,IRL,,1938,1943,Daily,1,2
118,Carron,53.035,-9.072,121, , ,Clare,IRL,,1943,1956,Daily,6,2
1718,Carron,53.026,-9.073,120, , ,Clare,IRL,,1974,-999,Daily,6,2
1518,Carron N.S.,53.036,-9.07,116, , ,Clare,IRL,,1958,1972,Daily,6,2
942,Carrowkeel,55.123,-7.2,15, , ,Donegal,IRL,,1950,2002,Daily,26,2
826,Carrowkennedy,53.701,-9.558,71, , ,Mayo,IRL,,1951,1970,Daily,21,2
4235,Carrowmore Lacken,54.256,-9.271,8, , ,Mayo,IRL,,1984,-999,Daily,21,2
3723,Casement,53.303,-6.437,89, ,casement,Dublin,IRL,,1944,-999,Hourly|Daily,14,1
2412,Cashel,52.517,-7.89,103,C.B.S., ,Tipperary,IRL,,1940,1988,Daily,4,2
7512,Cashel,52.553,-7.851,111,Ballykelly, ,Tipperary,IRL,,1987,2001,Daily,4,2
8312,Cashel,52.441,-7.8,91,Castleblake, ,Tipperary,IRL,,1998,2003,Daily,4,2
2012,Cashel ,52.507,-7.923,96,Ballinamona, ,Tipperary,IRL,,1910,-999,Daily,4,2
7612,Cashel ,52.457,-7.823,111,Ballydoyle House, ,Tipperary,IRL,,1988,-999,Daily,4,2
3836,Castle Dargan Golf Club,54.193,-8.433,41, , ,Sligo,IRL,,2007,-999,Daily,22,2
2927,Castle Hacket,53.492,-8.967,34, , ,Galway,IRL,,1943,1975,Daily,19,2
2735,Castlebar,53.852,-9.3,40, , ,Mayo,IRL,,1945,1970,Daily,21,2
235,Castlebar Rectory,53.85,-9.3,40, , ,Mayo,IRL,,1924,1945,Daily,21,2
3035,Castlebar,53.909,-9.304,107,Burren, ,Mayo,IRL,,1952,-999,Daily,21,2
1138,Castlebellingham,53.9,-6.387,14, , ,Louth,IRL,,1943,1964,Daily,17,2
3238,Castlebellingham Lynns,53.889,-6.358,6, , ,Louth,IRL,,1985,2013,Daily,17,2
838,Castleblaney,54.117,-6.735,119, , ,Monaghan,IRL,,1943,1982,Daily,25,2
6437,Castleblaney Coose,54.057,-6.77,164, , ,Monaghan,IRL,,2009,-999,Daily,25,2
3138,Castleblayney,54.089,-6.688,90,Drumgriston, ,Monaghan,IRL,,1984,1998,Daily,25,2
3838,Castleblayney,54.157,-6.759,117,Carrickaslane, ,Monaghan,IRL,,1998,2009,Daily,25,2
1415,Castlebridge,52.384,-6.452,9, , ,Wexford,IRL,,1949,1988,Daily,7,2
3915,Castlebridge,52.386,-6.458,19,Ballyboggan, ,Wexford,IRL,,1983,1990,Daily,7,2
5215,Castlebridge,52.376,-6.454,1,Sewage Works, ,Wexford,IRL,,1994,2016,Daily,7,2
5715,Castlebridge-Ballybogganlower,52.387,-6.459,26, , ,Wexford,IRL,,2016,-999,Daily,7,2
713,Castlecomer Hse.,52.802,-7.202,160, , ,Kilkenny,IRL,,1909,1964,Daily,8,2
5919,Castleconnell,52.707,-8.473,33, , ,Limerick,IRL,,1979,-999,Daily,5,2
2014,Castledermot,52.905,-6.842,82, , ,Kildare,IRL,,1944,1999,Daily,13,2
5414,Castledermot Kilkea House,52.934,-6.888,82, , ,Kildare,IRL,,1983,-999,Daily,13,2
642,Castlefin,54.802,-7.586,5, , ,Donegal,IRL,,1948,1991,Daily,26,2
2029,Castleforbes,53.768,-7.855,50, , ,Longford,IRL,,1911,1962,Daily,18,2
1809,Castlegregory Rough Point,52.306,-10.007,0, , ,Kerry,IRL,,1984,2004,Daily,2,2
1305,Castleisland,52.233,-9.455,41,Voc.Sch., ,Kerry,IRL,,1944,1988,Daily,2,2
2005,Castleisland,52.206,-9.342,244,Glountaine, ,Kerry,IRL,,1950,2004,Daily,2,2
1205,Castleisland ,52.233,-9.353,179,Coom, ,Kerry,IRL,,1944,-999,Daily,2,2
4905,Castleisland ,52.235,-9.373,100,Kilmurry, ,Kerry,IRL,,1998,-999,Daily,2,2
2805,Castleisland O.P.W.,52.223,-9.457,26, , ,Kerry,IRL,,1959,1962,Daily,2,2
8606,Castlelyons ,52.057,-8.153,118,Ballymacsimon, ,Cork,IRL,,2005,-999,Daily,1,2
4911,Castlemahon W.W.,52.424,-9.005,58, , ,Limerick,IRL,,1982,-999,Daily,5,2
905,Castlemaine,52.168,-9.692,2, , ,Kerry,IRL,,1941,1986,Daily,2,2
2104,Castlemartyr,51.907,-8.054,15, , ,Cork,IRL,,1944,1965,Daily,1,2
4604,Castlemartyr,51.905,-8.024,5,Dower Br., ,Cork,IRL,,1976,1985,Daily,1,2
6704,Castlemartyr,51.917,-8.067,15,Killamucky, ,Cork,IRL,,2000,2004,Daily,1,2
7504,Castlemartyr-Dower Pumphouse,51.905,-8.025,6, , ,Cork,IRL,,2016,-999,Daily,1,2
230,Castlepollard,53.675,-7.323,75,Pakenham Hall, ,Westmeath,IRL,,1909,1962,Daily,16,2
228,Castlerea,53.767,-8.487,72,Hanly Sch., ,Roscommon,IRL,,1935,1958,Daily,20,2
601,Castletownbere,51.667,-9.854,125,Filane West, ,Cork,IRL,,1948,2003,Daily,1,2
1001,Castletownbere,51.65,-9.908,1, , ,Cork,IRL,,1952,1998,Daily,1,2
1401,Castletownbere,51.638,-9.92,5,South Drum, ,Cork,IRL,,1981,1982,Daily,1,2
1501,Castletownbere Southdroum Ii,51.638,-9.919,7, , ,Cork,IRL,,1982,2006,Daily,1,2
1922,Castletowngeoghan,53.44,-7.483,86, , ,Westmeath,IRL,,1942,1994,Daily,16,2
1122,Castletowngeoghan N.S.,53.44,-7.488,91, , ,Westmeath,IRL,,1961,1962,Daily,16,2
6106,Castletownroche,52.175,-8.473,80,Naglesborough, ,Cork,IRL,,1985,1986,Daily,1,2
602,Castletownshend,51.533,-9.167,0,Glenbarrahane, ,Cork,IRL,,1940,1943,Daily,1,2
702,Castletownshend,51.533,-9.167,0,Seafield, ,Cork,IRL,,1940,1943,Daily,1,2
1102,Castletownshend,51.523,-9.172,0, , ,Cork,IRL,,1950,1960,Daily,1,2
3702,Castletownshend,51.522,-9.171,30,The Rocket Hous, ,Cork,IRL,,1981,2000,Daily,1,2
2314,Castlewarren,52.687,-7.103,225,Nat.Sch., ,Kilkenny,IRL,,1944,1963,Daily,8,2
1337,Cavan,53.992,-7.355,82,Trans.Stn., ,Cavan,IRL,,1942,1987,Daily,24,2
4137,Cavan ,53.991,-7.391,81,Drumconnick, ,Cavan,IRL,,1984,-999,Daily,24,2
4337,Cavan Loreto College,54.008,-7.37,60, , ,Cavan,IRL,,1985,2011,Daily,24,2
4423,Celbridge,53.339,-6.537,53, , ,Kildare,IRL,,1949,1985,Daily,13,2
8123,Celbridge,53.319,-6.584,58,Ardrass House, ,Kildare,IRL,,1981,2016,Daily,13,2
8123,Celbridge ,53.319,-6.584,58,Ardrass House, ,Kildare,IRL,,1981,-999,Daily,13,2
10023,Celbridge Moortown,53.355,-6.551,69, , ,Kildare,IRL,,2015,-999,Daily,13,2
635,Charlestown,53.967,-8.792,65, , ,Mayo,IRL,,1942,1960,Daily,21,2
9006,Charleville Golf Club,52.339,-8.709,128, , ,Cork,IRL,,2010,-999,Daily,1,2
643,Churchill,54.987,-7.887,107, , ,Donegal,IRL,,1950,1972,Daily,26,2
808,Churchtown,52.133,-6.92,12, , ,Wexford,IRL,,1970,1972,Daily,7,2
423,Clane,53.288,-6.683,65, , ,Kildare,IRL,,1937,1950,Daily,13,2
5223,Clane,53.289,-6.684,67, , ,Kildare,IRL,,1952,1992,Daily,13,2
322,Clara,53.342,-7.618,54,Trans.Stn., ,Offaly,IRL,,1942,1956,Daily,12,2
933,Clare Island,53.791,-9.968,0, , ,Mayo,IRL,,1982,1984,Daily,21,2
1333,Clare Island Ii,53.807,-9.974,68, , ,Mayo,IRL,,1990,2007,Daily,21,2
2175,Claremorris,53.707,-8.989,65, ,claremorris,Mayo,IRL,,2010,-999,Hourly|Daily,21,1
6014,Clashganna Mills,52.558,-6.907,87, , ,Carlow,IRL,,1987,1989,Daily,10,2
926,Cleggan,53.553,-10.118,21, , ,Galway,IRL,,1952,1984,Daily,19,2
1226,Cleggan Farm,53.557,-10.092,2, , ,Galway,IRL,,1971,1980,Daily,19,2
2126,Cleggan ,53.553,-10.106,25,Cloch Breac, ,Galway,IRL,,1984,-999,Daily,19,2
2226,Clifden,53.475,-10.021,3, , ,Galway,IRL,,1985,-999,Daily,19,2
526,Clifden Rectory,53.485,-10.023,19, , ,Galway,IRL,,1944,1962,Daily,19,2
742,Cloghan,54.839,-7.935,98, , ,Donegal,IRL,,1948,1970,Daily,26,2
509,Cloghane,52.224,-10.174,21, , ,Kerry,IRL,,1950,-999,Daily,2,2
1312,Clogheen,52.27,-7.991,67,Glenleigh, ,Tipperary,IRL,,1953,1962,Daily,4,2
7812,Clogheen,52.275,-7.951,49,Castlegrace, ,Tipperary,IRL,,1991,2000,Daily,4,2
741,Clogher,54.836,-8.422,34, , ,Donegal,IRL,,1950,1996,Daily,26,2
3338,Clogher Head ,53.839,-6.273,14,Port, ,Louth,IRL,,1985,-999,Daily,17,2
1438,Clogherhead,53.788,-6.233,0, , ,Louth,IRL,,1943,1983,Daily,17,2
313,Clonakenny,52.883,-7.823,128, , ,Tipperary,IRL,,1943,1954,Daily,4,2
802,Clonakilty,51.65,-8.883,35,Shannon Vale, ,Cork,IRL,,1957,1966,Daily,1,2
2702,Clonakilty,51.622,-8.886,6, , ,Cork,IRL,,1950,1964,Daily,1,2
3302,Clonakilty,51.553,-8.903,47,Dunowen Hse., ,Cork,IRL,,1969,1971,Daily,1,2
1802,Clonakilty ,51.625,-8.842,47,Agric.Coll., ,Cork,IRL,,1948,1994,Daily,1,2
5202,Clonakilty ,51.642,-8.822,119,Castleview, ,Cork,IRL,,1999,-999,Daily,1,2
3829,Clonark,53.368,-8.033,55, , ,Roscommon,IRL,,1944,1983,Daily,20,2
522,Clonaslee W.W.,53.142,-7.522,130, , ,Laois,IRL,,1943,1961,Daily,11,2
3222,Clonaslee Waterworks Ii,53.138,-7.523,141, , ,Laois,IRL,,1985,-999,Daily,11,2
2714,Clonbulloge,53.255,-7.085,67, , ,Offaly,IRL,,1946,1971,Daily,12,2
7023,Clondalkin,53.322,-6.383,62, , ,Dublin,IRL,,1967,1985,Daily,14,2
2437,Clones,54.183,-7.233,72, , ,Monaghan,IRL,,1950,2008,Hourly|Daily,25,1
5537,Clones ,54.141,-7.203,112,Dunseark, ,Monaghan,IRL,,1999,-999,Daily,25,2
716,Clonevan,52.555,-6.234,21, , ,Wexford,IRL,,1949,1971,Daily,7,2
2323,Clongowes Wood Coll.,53.307,-6.683,70, , ,Kildare,IRL,,1904,1966,Daily,13,2
7429,Clonmacnoise,53.322,-7.985,42, , ,Offaly,IRL,,2012,-999,Daily,12,2
345,Clonmany,55.235,-7.372,128,Meendoran Lake, ,Donegal,IRL,,1948,1957,Daily,26,2
445,Clonmany,55.24,-7.385,75,Meendoran Cottage, ,Donegal,IRL,,1957,1991,Daily,26,2
2112,Clonmel,52.325,-7.742,88,Ballingarrane, ,Tipperary,IRL,,1936,2000,Daily,4,2
8412,Clonmel,52.391,-7.718,57,Orchardstown, ,Tipperary,IRL,,1998,2000,Daily,4,2
5512,Clonmel ,52.37,-7.654,45,Redmondstown, ,Tipperary,IRL,,1962,-999,Daily,4,2
9212,Clonmel Racecourse,52.359,-7.675,21, , ,Tipperary,IRL,,2006,2012,Daily,4,2
831,Clonmellon,53.658,-7.007,86, , ,Westmeath,IRL,,1943,1955,Daily,16,2
8112,Clonoulty ,52.619,-7.934,82,Clogher, ,Tipperary,IRL,,1994,-999,Daily,4,2
1515,Clonroche,52.45,-6.709,68, , ,Wexford,IRL,,1949,1975,Daily,7,2
3015,Clonroche,52.433,-6.741,101, , ,Wexford,IRL,,1963,2003,Daily,7,2
5415,Clonroche ,52.44,-6.787,110,Knoxtown, ,Wexford,IRL,,2003,-999,Daily,7,2
1614,Clonsast,53.188,-7.2,68,Bord Na Mona, ,Offaly,IRL,,1937,1989,Daily,12,2
2235,Cloonacool,54.102,-8.773,69, , ,Sligo,IRL,,1944,1967,Daily,22,2
3135,Cloonacool ,54.126,-8.842,297,Lough Easkey, ,Sligo,IRL,,1952,-999,Daily,22,2
1629,Cloondra O.P.W.,53.733,-7.905,42, , ,Longford,IRL,,1893,1996,Daily,18,2
3129,Cloone,53.94,-7.785,53, , ,Leitrim,IRL,,1944,1986,Daily,23,2
5629,Cloone,53.968,-7.757,72,Aughnaglace House, ,Leitrim,IRL,,1984,1993,Daily,23,2
1705,Cloone Lake ,51.939,-9.871,179,Caragh River Area, ,Kerry,IRL,,1949,-999,Daily,2,2
1227,Cloonfad,53.685,-8.752,63, , ,Roscommon,IRL,,1941,1964,Daily,20,2
6629,Cloontuskert,53.702,-8.034,43, , ,Roscommon,IRL,,1993,1998,Daily,20,2
1425,Cloosh ,53.356,-9.337,82,For.Stn., ,Galway,IRL,,1963,-999,Daily,19,2
2535,Cloughbrack Far,53.987,-9.355,62, , ,Mayo,IRL,,1944,1988,Daily,21,2
1919,Cloughjordan,52.952,-8.058,84,Modreeny, ,Tipperary,IRL,,1931,1971,Daily,4,2
3519,Cloughjordan,52.938,-8.038,86, , ,Tipperary,IRL,,1943,1994,Daily,4,2
6619,Cloughjordan,52.95,-8.025,106,Deerpark, ,Tipperary,IRL,,1995,2003,Daily,4,2
7019,Cloughjordan-Oxpark,52.941,-8.037,94, , ,Tipperary,IRL,,2014,-999,Daily,4,2
304,Cloyne,51.853,-8.118,32,The Deanery, ,Cork,IRL,,1935,1951,Daily,1,2
3104,Cloyne,51.858,-8.121,21, , ,Cork,IRL,,1950,1988,Daily,1,2
4704,Cloyne,51.825,-8.137,43,Ballymacandrick, ,Cork,IRL,,1976,1990,Daily,1,2
6304,Cloyne ,51.854,-8.135,26,Lisanley, ,Cork,IRL,,1996,-999,Daily,1,2
1904,Coachford,51.905,-8.788,61, , ,Cork,IRL,,1942,1991,Daily,1,2
5731,Collinstown ,53.683,-7.168,142,Lough Bawn, ,Westmeath,IRL,,2007,-999,Daily,16,2
2031,Collon,53.773,-6.483,121, , ,Louth,IRL,,1943,1990,Daily,17,2
2836,Collooney,54.268,-8.485,18, , ,Sligo,IRL,,1985,1991,Daily,22,2
627,Cong,53.535,-9.29,27,For.Stn., ,Galway,IRL,,1941,1961,Daily,19,2
3727,Cong,53.535,-9.305,25,Clogher, ,Galway,IRL,,1961,1991,Daily,19,2
4906,Conna,52.107,-8.059,37,Carrigeen Hill, ,Cork,IRL,,1981,2002,Daily,1,2
8406,Conna ,52.102,-8.058,10,Castleview, ,Cork,IRL,,2003,-999,Daily,1,2
1125,Connemara,53.417,-9.79,22,Cashel Bay, ,Galway,IRL,,1955,1976,Daily,19,2
1626,Connemara National Park,53.551,-9.939,79, , ,Galway,IRL,,1982,2010,Daily,19,2
917,Connolly,52.824,-9.175,95, , ,Clare,IRL,,1951,1965,Daily,6,2
142,Convoy,54.856,-7.667,32, , ,Donegal,IRL,,1948,1949,Daily,26,2
6419,Cooga Lowerdoon,52.605,-8.27,66, , ,Limerick,IRL,,1984,-999,Daily,5,2
936,Coolaney,54.17,-8.602,67, , ,Sligo,IRL,,1942,1991,Daily,22,2
4729,Coolavin,53.934,-8.505,72, , ,Sligo,IRL,,1963,2012,Daily,22,2
1130,Coole ,53.674,-7.417,60,Coolnagun, ,Westmeath,IRL,,1951,-999,Daily,16,2
2230,Coole-Coolure,53.67,-7.37,58, , ,Westmeath,IRL,,1999,-999,Daily,16,2
6404,Coolea,51.934,-9.24,211,Milleens, ,Cork,IRL,,1999,2009,Daily,1,2
1616,Coolgreaney Stmartins,52.76,-6.239,57, , ,Wexford,IRL,,2003,-999,Daily,7,2
416,Coolgreany,52.757,-6.237,45, , ,Wexford,IRL,,1949,1970,Daily,7,2
5214,Coolgreany Castlewarren,52.705,-7.118,250, , ,Kilkenny,IRL,,1982,-999,Daily,8,2
1901,Coomclogh,51.768,-9.267,245, , ,Cork,IRL,,1993,-999,Daily,1,2
1113,Coon,52.783,-7.117,179,Voc.Sch., ,Kilkenny,IRL,,1944,1970,Daily,8,2
3913,Coon,52.774,-7.118,250,Hill View Hse., ,Kilkenny,IRL,,1970,1975,Daily,8,2
4013,Coon,52.783,-7.117,179, , ,Kilkenny,IRL,,1975,2015,Daily,8,2
217,Cooraclare,52.703,-9.42,15, , ,Clare,IRL,,1943,1956,Daily,6,2
2629,Cootehall,53.983,-8.155,53, , ,Roscommon,IRL,,1942,1981,Daily,20,2
2637,Cootehill,54.072,-7.085,88,Voc.Sch., ,Cavan,IRL,,1951,1968,Daily,24,2
3437,Cootehill,54.068,-7.067,105,Comp. Sch., ,Cavan,IRL,,1968,1969,Daily,24,2
4837,Cootehill,54.052,-7.104,75,Vicars Hill, ,Cavan,IRL,,1992,1994,Daily,24,2
2113,Corbetstown,52.738,-7.252,83, , ,Kilkenny,IRL,,1946,1983,Daily,8,2
4831,Corbetstown,53.404,-7.16,79, , ,Offaly,IRL,,1997,-999,Daily,12,2
404,Cork,51.872,-8.473,24,Rochelle Schools, ,Cork,IRL,,1936,1959,Daily,1,2
904,Cork,51.889,-8.487,27,Univ.Coll., ,Cork,IRL,,1862,1994,Daily,1,2
1304,Cork,51.873,-8.522,18,Univ.Coll.Farm, ,Cork,IRL,,1940,1982,Daily,1,2
4204,Cork,51.884,-8.418,12,Clover Hill, ,Cork,IRL,,1975,2014,Daily,1,2
5104,Cork,51.89,-8.302,4,Fota Island, ,Cork,IRL,,1977,1990,Daily,1,2
5504,Cork,51.872,-8.421,65,Douglas, ,Cork,IRL,,1984,2014,Daily,1,2
5904,Cork,51.9,-8.287,13,Fota Island Ii, ,Cork,IRL,,1990,1998,Daily,1,2
5404,Cork Montenotte,51.903,-8.441,24, , ,Cork,IRL,,1984,-999,Daily,1,2
3904,Cork Airport,51.842,-8.485,143, ,cork,Cork,IRL,,1961,-999,Hourly|Daily,1,1
4227,Cornamona,53.517,-9.435,7, , ,Galway,IRL,,1968,2011,Daily,19,2
718,Corofin,52.942,-9.068,18, , ,Clare,IRL,,1943,-999,Daily,6,2
2027,Corofin,53.435,-8.858,34, , ,Galway,IRL,,1941,1991,Daily,19,2
938,Corrinshegagh,54.052,-6.652,90, , ,Monaghan,IRL,,1943,1986,Daily,25,2
2318,Corrofin ,52.902,-9.058,33,Soheen, ,Clare,IRL,,2001,-999,Daily,6,2
2025,Costello Fishery Ii,53.276,-9.533,1, , ,Galway,IRL,,1996,2000,Daily,19,2
1225,Costelloe Fishery,53.276,-9.536,0, , ,Galway,IRL,,1960,-999,Daily,19,2
916,Courtown Harbour,52.638,-6.233,14, , ,Wexford,IRL,,1952,1984,Daily,7,2
5911,Craggaunowen,52.806,-8.788,40, , ,Clare,IRL,,1993,-999,Daily,6,2
721,Craughwell,53.225,-8.733,26, , ,Galway,IRL,,1943,1984,Daily,19,2
2521,Craughwell ,53.223,-8.752,19,Grenage, ,Galway,IRL,,1985,-999,Daily,19,2
1644,Creeslough,55.137,-7.893,12,Ards Road, ,Donegal,IRL,,1984,2007,Daily,26,2
944,Creeslough ,55.133,-7.95,72,Carrownamaddy, ,Donegal,IRL,,1948,-999,Daily,26,2
844,Creeslough-Brockagh,55.075,-7.972,110, , ,Donegal,IRL,,1948,-999,Daily,26,2
1628,Creggs,53.59,-8.358,61, , ,Galway,IRL,,1944,1991,Daily,19,2
6211,Croagh Smithfield,52.538,-8.856,22, , ,Limerick,IRL,,1999,-999,Daily,5,2
3329,Croghan,53.907,-8.22,97, , ,Roscommon,IRL,,1944,1969,Daily,20,2
1641,Crolly ,55.006,-8.25,131,Filter-Works, ,Donegal,IRL,,1972,-999,Daily,26,2
1404,Crookstown,51.853,-8.806,55, , ,Cork,IRL,,1942,1990,Daily,1,2
3211,Croom,52.519,-8.708,30,Voc.Sch., ,Limerick,IRL,,1951,1983,Daily,5,2
1831,Crossakiel,53.708,-7.018,134, , ,Meath,IRL,,1943,1984,Daily,15,2
637,Crossdoney,53.955,-7.417,93,Kevit Castle, ,Cavan,IRL,,1923,1975,Daily,24,2
3504,Crosshaven,51.802,-8.303,48, , ,Cork,IRL,,1952,1993,Daily,1,2
1635,Crossmolina,54.1,-9.318,20, , ,Mayo,IRL,,1942,2000,Daily,21,2
5035,Crossmolina,54.067,-9.308,12,Castlehill, ,Mayo,IRL,,1989,-999,Daily,21,2
818,Crusheen,52.937,-8.9,40, , ,Clare,IRL,,1943,1990,Daily,6,2
2118,Crusheen,52.934,-8.903,35,Caherphuca, ,Clare,IRL,,1993,2006,Daily,6,2
2518,Crusheen ,52.891,-8.889,43,Cloonawillin, ,Clare,IRL,,2007,-999,Daily,6,2
2618,Crusheen ,52.926,-8.819,165,Ballinruan, ,Clare,IRL,,2014,-999,Daily,6,2
413,Cuffesgrange,52.6,-7.302,74, , ,Kilkenny,IRL,,1944,1957,Daily,8,2
2037,Cuilcagh Mtns.,54.16,-7.801,276, , ,Cavan,IRL,,1944,-999,Daily,24,2
5614,Curragh Racecourse,53.167,-6.835,113, , ,Kildare,IRL,,1984,2005,Daily,13,2
1633,Curraun,53.868,-9.924,0, , ,Mayo,IRL,,1994,1998,Daily,21,2
3123,Currough No.1,53.037,-6.538,279, , ,Wicklow,IRL,,1937,1968,Daily,9,2
2935,Curry,54,-8.771,61, , ,Sligo,IRL,,1951,1970,Daily,22,2
5435,Curry,54.003,-8.77,58, , ,Sligo,IRL,,1997,-999,Daily,22,2
1714,Daingean,53.288,-7.288,76, , ,Offaly,IRL,,1942,1992,Daily,12,2
1523,Dalkey,53.272,-6.118,63,Moytura, ,Dublin,IRL,,1944,1951,Daily,14,2
3423,Dalkey,53.268,-6.1,19,Torca Hill, ,Dublin,IRL,,1941,1971,Daily,14,2
3024,Deerpark Powerscourt,53.141,-6.222,393, , ,Wicklow,IRL,,1982,1984,Daily,9,2
1724,Delgany,53.14,-6.087,74,Goodbrook, ,Wicklow,IRL,,1955,1970,Daily,9,2
626,Delphi Lodge,53.626,-9.742,157, , ,Mayo,IRL,,1915,1986,Daily,21,2
2426,Delphi Lodge Ii,53.626,-9.742,157, , ,Mayo,IRL,,1993,-999,Daily,21,2
731,Delvin,53.605,-7.09,78, , ,Westmeath,IRL,,1943,1959,Daily,16,2
5331,Delvin Castle G.C.,53.608,-7.104,93, , ,Westmeath,IRL,,1999,-999,Daily,16,2
4505,Dereen,51.891,-10.237,18, , ,Kerry,IRL,,1995,-999,Daily,2,2
1803,Derriana,51.889,-10.023,116, , ,Kerry,IRL,,1993,-999,Daily,2,2
2622,Derrinlough,53.176,-7.873,58,Bord Na Mona, ,Offaly,IRL,,1970,1994,Daily,12,2
5029,Derrycashel,53.722,-7.969,43, , ,Roscommon,IRL,,1968,1998,Daily,20,2
3431,Derrygreenagh,53.388,-7.255,84, , ,Offaly,IRL,,1955,-999,Daily,12,2
1941,Derryhenny Doochary,54.876,-8.252,3, , ,Donegal,IRL,,1981,-999,Daily,26,2
2635,Derryhillagh,54.033,-9.388,123, , ,Mayo,IRL,,1944,-999,Daily,21,2
6219,Derrymount,52.843,-8.423,152, , ,Tipperary,IRL,,1984,1990,Daily,4,2
6519,Derrymount Ii,52.843,-8.423,152, , ,Tipperary,IRL,,1990,1993,Daily,4,2
103,Derrynane Abbey,51.757,-10.125,0, , ,Kerry,IRL,,1871,1958,Daily,2,2
5227,Derrypark,53.59,-9.49,19, , ,Mayo,IRL,,1996,-999,Daily,21,2
2326,Dhulough,53.64,-9.742,148, , ,Mayo,IRL,,1986,2012,Daily,21,2
2405,Dingle,52.136,-10.268,11, , ,Kerry,IRL,,1950,1988,Daily,2,2
4305,Dingle,52.139,-10.29,11,Milltown, ,Kerry,IRL,,1989,1995,Daily,2,2
1909,Dingle ,52.202,-10.357,34,Baile Na Ngall, ,Kerry,IRL,,1984,-999,Daily,2,2
2219,Dolla,52.792,-8.188,104, , ,Tipperary,IRL,,1943,1994,Daily,4,2
1715,Donard,53.02,-6.608,205, , ,Wicklow,IRL,,1949,1984,Daily,9,2
440,Donegal,54.686,-8.003,116,Cullionboy W.W., ,Donegal,IRL,,1948,1952,Daily,26,2
540,Donegal,54.653,-8.1,30,Dist.Hosp., ,Donegal,IRL,,1948,1951,Daily,26,2
1706,Doneraile,52.209,-8.584,71, , ,Cork,IRL,,1944,1985,Daily,1,2
2804,Donoughmore,51.987,-8.737,190, , ,Cork,IRL,,1948,-999,Daily,1,2
1117,Doo-Lough,52.801,-9.321,71, , ,Clare,IRL,,1982,-999,Daily,6,2
1934,Dooagh,53.969,-10.157,75,Water Treatment Plant, ,Mayo,IRL,,1988,-999,Daily,21,2
941,Doochary,54.934,-8.15,77,Cummeen, ,Donegal,IRL,,1950,1981,Daily,26,2
4705,Dooks,52.067,-9.923,2, , ,Kerry,IRL,,1996,-999,Daily,2,2
117,Doolin,53.008,-9.383,35, , ,Clare,IRL,,1943,1952,Daily,6,2
717,Doonbeg,52.725,-9.517,4, , ,Clare,IRL,,1951,1982,Daily,6,2
1217,Doonbeg,52.726,-9.508,6, , ,Clare,IRL,,1984,2001,Daily,6,2
1917,Doonbeg,52.739,-9.523,11,Mcgraths Point, ,Clare,IRL,,1999,2000,Daily,6,2
2734,Dooncarton,54.27,-9.852,63, , ,Mayo,IRL,,2010,-999,Daily,21,2
504,Douglas Rectory,51.867,-8.433,39, , ,Cork,IRL,,1941,1949,Daily,1,2
1012,Drangan,52.517,-7.583,112, , ,Tipperary,IRL,,1944,1962,Daily,4,2
4112,Drangan ,52.525,-7.575,149,Moanvurrin, ,Tipperary,IRL,,1962,-999,Daily,4,2
1602,Drimoleague,51.655,-9.259,61, , ,Cork,IRL,,1948,1990,Daily,1,2
4502,Drimoleague ,51.639,-9.289,28,Angram, ,Cork,IRL,,1994,-999,Daily,1,2
2202,Drinagh,51.642,-9.153,85, , ,Cork,IRL,,1949,1970,Daily,1,2
2902,Drinagh,51.64,-9.155,91,Co-Op.Ltd., ,Cork,IRL,,1962,1972,Daily,1,2
2131,Drogheda,53.722,-6.392,13,Trans.Stn., ,Louth,IRL,,1943,1975,Daily,17,2
3831,Drogheda,53.734,-6.371,34,Killineer, ,Louth,IRL,,1970,2004,Daily,17,2
536,Dromahair,54.233,-8.305,19, , ,Leitrim,IRL,,1944,1960,Daily,23,2
1936,Dromahair ,54.226,-8.292,46,Market St., ,Leitrim,IRL,,1960,-999,Daily,23,2
1829,Dromod ,53.822,-7.918,39,Ruskey, ,Leitrim,IRL,,1894,-999,Daily,23,2
418,Dromoland Castle,52.774,-8.902,17, , ,Clare,IRL,,1923,-999,Daily,6,2
2418,Dromoland Golf Club,52.776,-8.892,35, , ,Clare,IRL,,2005,2010,Daily,6,2
736,Dromore West,54.242,-8.867,64, , ,Sligo,IRL,,1942,1970,Daily,22,2
4124,Druids Glen Golf Course,53.091,-6.076,50, , ,Wicklow,IRL,,2013,-999,Daily,9,2
4627,Drum West,53.291,-9.133,70, , ,Galway,IRL,,1982,2013,Daily,19,2
1212,Drumbane,52.653,-7.95,84, , ,Tipperary,IRL,,1943,1957,Daily,4,2
3736,Drumcliffe,54.334,-8.492,15,Cullaghbeg, ,Sligo,IRL,,2003,2003,Daily,22,2
711,Drumcollogher,52.333,-8.9,150, , ,Limerick,IRL,,1943,1945,Daily,5,2
1542,Drumkeen,54.869,-7.773,118,Legland, ,Donegal,IRL,,1974,1977,Daily,26,2
3929,Drumkeeran,54.168,-8.14,89,Voc.Sch., ,Leitrim,IRL,,1944,1987,Daily,23,2
6229,Drumkeeran Vocational School Ii,54.168,-8.135,58, , ,Leitrim,IRL,,1987,1999,Daily,23,2
3029,Drumlish,53.817,-7.758,88, , ,Longford,IRL,,1944,1964,Daily,18,2
2826,Drummin Tawnyard,53.643,-9.641,64, , ,Mayo,IRL,,2012,-999,Daily,21,2
1729,Drumshanbo,54.057,-8.057,49, , ,Leitrim,IRL,,1893,-999,Daily,23,2
1529,Drumsna ,53.907,-8,45,Albert Lock, ,Roscommon,IRL,,1876,-999,Daily,20,2
1123,Dublin,53.333,-6.267,19,Leeson St., ,Dublin,IRL,,1938,1954,Daily,14,2
1323,Dublin,53.317,-6.272,36,Kenilworth Sq., ,Dublin,IRL,,1925,1957,Daily,14,2
1423,Dublin,53.34,-6.275,17,Bonham St., ,Dublin,IRL,,1942,1954,Daily,14,2
1623,Dublin,53.338,-6.283,20,Marrowbone Lane, ,Dublin,IRL,,1954,1962,Daily,14,2
1723,Dublin,53.358,-6.342,54,Phoenix Park, ,Dublin,IRL,,1829,2003,Daily,14,2
2123,Dublin,53.34,-6.253,15,Trinity Coll., ,Dublin,IRL,,1904,1970,Daily,14,2
2423,Dublin,53.358,-6.222,0,Clontarf, ,Dublin,IRL,,1911,2001,Daily,14,2
2823,Dublin,53.3,-6.283,49,Rathfarnham Castle, ,Dublin,IRL,,1920,1970,Daily,14,2
4023,Dublin,53.355,-6.317,41,Arus An Uachtarain, ,Dublin,IRL,,1948,1973,Daily,14,2
4123,Dublin,53.351,-6.256,7,Upr.Oconnell St., ,Dublin,IRL,,1948,1979,Daily,14,2
5723,Dublin,53.323,-6.222,8,Ballsbridge, ,Dublin,IRL,,1959,1972,Daily,14,2
5923,Dublin,53.387,-6.283,57,Ballymun Ave., ,Dublin,IRL,,1962,1970,Daily,14,2
6423,Dublin,53.387,-6.202,35,Coolock Chanel Coll., ,Dublin,IRL,,1963,1975,Daily,14,2
6523,Dublin,53.375,-6.234,32,Thorndale Hse., ,Dublin,IRL,,1964,1973,Daily,14,2
7123,Dublin,53.37,-6.187,16,St.Pauls Coll., ,Dublin,IRL,,1967,1970,Daily,14,2
7823,Dublin,53.325,-6.235,13,Pembroke Road, ,Dublin,IRL,,1975,1978,Daily,14,2
8023,Dublin,53.287,-6.25,71,Dundrum, ,Dublin,IRL,,1975,2001,Daily,14,2
1823,Dublin ,53.369,-6.27,22,Glasnevin, ,Dublin,IRL,,1860,-999,Daily,14,2
2523,Dublin ,53.338,-6.208,3,Ringsend, ,Dublin,IRL,,1911,-999,Daily,14,2
3923,Dublin ,53.337,-6.252,16,Merrion Square, ,Dublin,IRL,,1948,-999,Daily,14,2
7523,Dublin ,53.322,-6.222,8,Simmonscourt, ,Dublin,IRL,,1972,-999,Daily,14,2
150,Dublin Airport-Check,53.421,-6.256,64, , ,Dublin,IRL,,1994,1997,Daily,14,2
532,Dublin Airport,53.423,-6.238,63, ,dublin-airport,Dublin,IRL,,1939,-999,Hourly|Daily,14,1
9723,Dublin-Navan Road,53.368,-6.323,48, , ,Dublin,IRL,,2010,2011,Daily,14,2
1032,Duleek,53.652,-6.417,18, , ,Meath,IRL,,1949,1996,Daily,15,2
2023,Dun Laoghaire,53.287,-6.123,8,Peoples Park, ,Dublin,IRL,,1901,1992,Daily,14,2
2223,Dun Laoghaire,53.29,-6.135,29,Harbour Yd., ,Dublin,IRL,,1905,2001,Daily,14,2
6223,Dun Laoghaire,53.285,-6.123,11,Rosmeen Gdns., ,Dublin,IRL,,1962,1975,Daily,14,2
9223,Dun Laoghaire,53.285,-6.126,14, , ,Dublin,IRL,,1997,-999,Daily,14,2
4623,Dunboyne,53.419,-6.472,68, , ,Meath,IRL,,1949,1990,Daily,15,2
708,Duncannon,52.219,-6.923,3, , ,Wexford,IRL,,1949,1994,Daily,7,2
908,Duncannon,52.209,-6.908,33, , ,Wexford,IRL,,1994,-999,Daily,7,2
138,Dundalk,54.005,-6.35,3,Soldier's Point, ,Louth,IRL,,1946,1959,Daily,17,2
538,Dundalk,54.051,-6.351,60,Annaskeagh W.W., ,Louth,IRL,,1914,-999,Daily,17,2
2338,Dundalk,53.951,-6.418,7,Heynestown Rectory, ,Louth,IRL,,1963,1966,Daily,17,2
2438,Dundalk,54.037,-6.358,19,Mt.Pleasant, ,Louth,IRL,,1966,1973,Daily,17,2
2538,Dundalk,54.008,-6.423,12,Castletown Mt., ,Louth,IRL,,1967,1991,Daily,17,2
3738,Dundalk,53.97,-6.454,49,Knockbridge, ,Louth,IRL,,1991,2006,Daily,17,2
3112,Dundrum,52.555,-8.05,89, , ,Tipperary,IRL,,1943,1974,Daily,4,2
6212,Dundrum,52.554,-8.091,104,Kilpatrick, ,Tipperary,IRL,,1975,1996,Daily,4,2
6512,Dundrum,52.635,-7.991,158,Stook W.W., ,Tipperary,IRL,,1981,2013,Daily,4,2
6612,Dundrum,52.543,-8.017,92,Knockavilla, ,Tipperary,IRL,,1981,1991,Daily,4,2
8012,Dundrum,52.555,-8.056,90,Garryduff, ,Tipperary,IRL,,1993,2001,Daily,4,2
9023,Dundrum,53.285,-6.234,72,Dromartin, ,Dublin,IRL,,1997,1999,Daily,14,2
144,Dunfanaghy,55.183,-7.967,6,St.Patrick's, ,Donegal,IRL,,1880,1948,Daily,26,2
644,Dunfanaghy,55.183,-7.97,5, , ,Donegal,IRL,,1948,1984,Daily,26,2
1944,Dunfanaghy-Murroe,55.153,-8.006,73, , ,Donegal,IRL,,1996,-999,Daily,26,2
307,Dungarvan,52.087,-7.617,4, , ,Waterford,IRL,,1944,1970,Daily,3,2
807,Dungarvan,52.087,-7.654,16,Agr.Res.Stn., ,Waterford,IRL,,1963,1983,Daily,3,2
1607,Dungarvan,52.1,-7.559,6,Oldcote, ,Waterford,IRL,,1985,1995,Daily,3,2
2007,Dungarvan,52.102,-7.54,3,Clonea, ,Waterford,IRL,,1995,1998,Daily,3,2
1407,Dungarvan ,52.086,-7.676,15,Carriglea, ,Waterford,IRL,,1983,-999,Daily,3,2
5013,Dungarvan ,52.584,-7.118,71,Castlefield, ,Kilkenny,IRL,,1993,-999,Daily,8,2
2341,Dungloe,54.941,-8.368,60, , ,Donegal,IRL,,1998,-999,Daily,26,2
4804,Dungourney,52,-8.072,149,Ballyeightragh, ,Cork,IRL,,1976,2011,Daily,1,2
140,Dunkineely Rectory,54.633,-8.367,40, , ,Donegal,IRL,,1935,1945,Daily,26,2
1538,Dunleer,53.824,-6.39,38, , ,Louth,IRL,,1951,1990,Daily,17,2
244,Dunlewy,55.053,-8.056,186,Meenagoppagh, ,Donegal,IRL,,1948,1955,Daily,26,2
541,Dunlewy,55.026,-8.139,63, , ,Donegal,IRL,,1948,2003,Daily,26,2
2641,Dunlewy Lough,55.021,-8.119,59, , ,Donegal,IRL,,2012,-999,Daily,26,2
1402,Dunmanway,51.72,-9.106,60, , ,Cork,IRL,,1948,1997,Daily,1,2
2402,Dunmanway,51.736,-9.167,177,Inchanadreen, ,Cork,IRL,,1950,1995,Daily,1,2
5302,Dunmanway,51.758,-9.124,94,Keelaraheen, ,Cork,IRL,,2000,2010,Daily,1,2
4902,Dunmanway ,51.723,-9.103,60,Demesne, ,Cork,IRL,,1998,-999,Daily,1,2
5931,Dunmoe-Graigs Lane,53.686,-6.641,91, , ,Meath,IRL,,2011,-999,Daily,15,2
1327,Dunmore,53.618,-8.733,63, , ,Galway,IRL,,1941,1991,Daily,19,2
107,Dunmore East O.P.W.,52.142,-6.987,0, , ,Waterford,IRL,,1930,1963,Daily,3,2
2307,Dunmore East-Kilmacleague,52.16,-7.059,22, , ,Waterford,IRL,,2014,-999,Daily,3,2
1375,Dunsany,53.51,-6.656,91, ,dunsany,Meath,IRL,,2006,-999,Hourly|Daily,15,1
3731,Dunsany,53.517,-6.657,88,Grange, ,Meath,IRL,,1963,2007,Daily,15,2
431,Dunsany Castle,53.535,-6.62,74, , ,Meath,IRL,,1923,1957,Daily,15,2
1331,Dunshaughlin,53.507,-6.537,105, , ,Meath,IRL,,1942,1981,Daily,15,2
2532,Dunshaughlin ,53.52,-6.507,102,Lagore, ,Meath,IRL,,1998,-999,Daily,15,2
1713,Durrow,52.84,-7.39,97, , ,Laois,IRL,,1946,1990,Daily,11,2
5513,Durrow,52.84,-7.386,87, , ,Laois,IRL,,2010,-999,Daily,11,2
801,Durrus,51.618,-9.521,30, , ,Cork,IRL,,1950,1987,Daily,1,2
9923,Eadestown-Carters Hill,53.203,-6.573,168, , ,Kildare,IRL,,2013,2014,Daily,13,2
836,Easkey,54.285,-8.958,14, , ,Sligo,IRL,,1942,1993,Daily,22,2
3436,Easkey ,54.285,-8.951,21,Bunowna, ,Sligo,IRL,,1994,-999,Daily,22,2
314,Edenderry,53.333,-7.217,88,Tubberdaly, ,Offaly,IRL,,1923,1944,Daily,12,2
1514,Edenderry,53.323,-7.033,72,The Tunnel, ,Offaly,IRL,,1931,1989,Daily,12,2
3231,Edenderry,53.337,-7.055,75, , ,Offaly,IRL,,1951,1999,Daily,12,2
6314,Edenderry ,53.325,-7.122,86,Ballinla, ,Offaly,IRL,,1990,-999,Daily,12,2
630,Edgeworthstown,53.69,-7.605,90, , ,Longford,IRL,,1944,1997,Daily,18,2
3429,Elphin,53.841,-8.19,69, , ,Roscommon,IRL,,1944,1983,Daily,20,2
5729,Elphin,53.857,-8.192,74, , ,Roscommon,IRL,,1984,2016,Daily,20,2
5729,Elphin,53.857,-8.192,74, , ,Roscommon,IRL,,1984,-999,Daily,20,2
3311,Emly,52.459,-8.353,108, , ,Tipperary,IRL,,1951,1991,Daily,4,2
4914,Emo Court,53.103,-7.188,95, , ,Laois,IRL,,1974,2001,Daily,11,2
239,Emyvale,54.367,-7.1,186,Drumfurrer, ,Monaghan,IRL,,1952,1959,Daily,25,2
339,Emyvale,54.338,-6.955,74, , ,Monaghan,IRL,,1942,1984,Daily,25,2
839,Emyvale,54.338,-6.956,66, , ,Monaghan,IRL,,1984,-999,Daily,25,2
331,Enfield,53.47,-6.723,98,Summerhill, ,Meath,IRL,,1894,1951,Daily,15,2
1231,Enfield,53.408,-6.833,77, , ,Meath,IRL,,1942,1976,Daily,15,2
5631,Enfield ,53.418,-6.857,90,Newcastle House, ,Meath,IRL,,2003,-999,Daily,15,2
618,Ennis,52.842,-8.975,3, , ,Clare,IRL,,1943,1985,Daily,6,2
218,Ennis Cappalea,52.837,-9.083,95, , ,Clare,IRL,,1945,1953,Daily,6,2
1118,Ennis Gortnaganniv,52.818,-9.075,57, , ,Clare,IRL,,1943,1962,Daily,6,2
318,Ennis Knockatunna,52.788,-9.108,92, , ,Clare,IRL,,1945,1953,Daily,6,2
4035,Enniscoe,54.07,-9.318,23, , ,Mayo,IRL,,1983,1986,Daily,21,2
1015,Enniscorthy,52.5,-6.568,20,Voc.Sch., ,Wexford,IRL,,1949,1988,Daily,7,2
2715,Enniscorthy,52.542,-6.735,106,Woodbrook, ,Wexford,IRL,,1940,1997,Daily,7,2
4015,Enniscorthy-Brownswood,52.458,-6.557,12, , ,Wexford,IRL,,1983,-999,Daily,7,2
835,Enniscrone,54.208,-9.087,28, , ,Sligo,IRL,,1942,1993,Daily,22,2
5735,Enniscrone Golf Club,54.204,-9.11,1, , ,Sligo,IRL,,2004,-999,Daily,22,2
524,Enniskerry,53.167,-6.167,144,Ballyorney, ,Wicklow,IRL,,1938,1945,Daily,9,2
2224,Enniskerry,53.206,-6.207,261,Ballybrew, ,Wicklow,IRL,,1975,1983,Daily,9,2
2324,Enniskerry,53.19,-6.203,195,Kilmalin, ,Wicklow,IRL,,1975,2014,Daily,9,2
2424,Enniskerry,53.204,-6.15,67,Ballyman Hse., ,Wicklow,IRL,,1976,1979,Daily,9,2
1517,Ennistymon,52.939,-9.288,31, , ,Clare,IRL,,1985,1985,Daily,6,2
1717,Ennistymon ,52.954,-9.275,68,Ballymacraven, ,Clare,IRL,,1987,2001,Daily,6,2
2217,Ennistymon ,52.937,-9.285,30,Deerpark, ,Clare,IRL,,2001,-999,Daily,6,2
1826,Erriff Fisheries,53.609,-9.659,237, , ,Mayo,IRL,,1974,2005,Daily,21,2
2335,Eskeragh,54.107,-9.467,66, , ,Mayo,IRL,,1944,-999,Daily,21,2
1303,Eyeries,51.687,-9.952,56, , ,Cork,IRL,,1950,1970,Daily,1,2
2819,Eyrecourt,53.192,-8.133,51, , ,Galway,IRL,,1943,1990,Daily,19,2
2632,Fairyhouse Racecourse,53.484,-6.458,88, , ,Meath,IRL,,2002,-999,Daily,15,2
8512,Faithlegg,52.252,-7.02,36,Golf Club, ,Waterford,IRL,,1998,2013,Daily,3,2
744,Falcarragh,55.136,-8.1,46, , ,Donegal,IRL,,1948,1984,Daily,26,2
1844,Falcarragh-Lough Altan,55.075,-8.093,149, , ,Donegal,IRL,,1988,-999,Daily,26,2
221,Fanore,53.12,-9.272,136, , ,Clare,IRL,,1952,1962,Daily,6,2
804,Farmers Cross,51.842,-8.483,141,Cork Apt.Site, ,Cork,IRL,,1959,1962,Daily,1,2
1129,Farnaught,53.858,-7.817,58, , ,Leitrim,IRL,,1944,1955,Daily,23,2
1005,Farranfore,52.17,-9.55,43, , ,Kerry,IRL,,1941,1991,Daily,2,2
2105,Farranfore,52.187,-9.389,220,Scartaglin, ,Kerry,IRL,,1950,1971,Daily,2,2
2205,Farranfore,52.139,-9.402,202,Clounlea, ,Kerry,IRL,,1950,2005,Daily,2,2
4405,Farranfore,52.167,-9.55,62,Knockaderry, ,Kerry,IRL,,1993,2001,Daily,2,2
2419,Feakle,52.922,-8.652,72, , ,Clare,IRL,,1943,1970,Daily,6,2
719,Feakle Flagmount,52.983,-8.633,154, , ,Clare,IRL,,1940,1943,Daily,6,2
811,Fedamore,52.54,-8.592,61, , ,Limerick,IRL,,1943,1952,Daily,5,2
3837,Fenagh,54.017,-7.833,70,Foxfield N.S., ,Leitrim,IRL,,1971,1973,Daily,23,2
609,Fenit,52.273,-9.859,0, , ,Kerry,IRL,,1951,1995,Daily,2,2
1707,Fenor,52.125,-7.093,0,Tramore, ,Waterford,IRL,,1986,2008,Daily,3,2
1107,Fenor ,52.151,-7.204,65,Islandtarsney, ,Waterford,IRL,,1981,-999,Daily,3,2
2107,Fenor South,52.153,-7.221,51, , ,Waterford,IRL,,2008,-999,Daily,3,2
1822,Ferbane,53.268,-7.825,46, , ,Offaly,IRL,,1942,1986,Daily,12,2
2606,Fermoy,52.136,-8.273,56, , ,Cork,IRL,,1944,1980,Daily,1,2
3606,Fermoy,52.158,-8.258,59,Moore Park, ,Cork,IRL,,1961,2010,Daily,1,2
4806,Fermoy,52.103,-8.34,205,Coolnakilla, ,Cork,IRL,,1978,1992,Daily,1,2
2315,Ferns,52.588,-6.501,60, , ,Wexford,IRL,,1950,1984,Daily,7,2
4315,Ferns Ii,52.589,-6.501,64, , ,Wexford,IRL,,1985,1988,Daily,7,2
4715,Ferns Iii,52.626,-6.543,117, , ,Wexford,IRL,,1988,-999,Daily,7,2
4012,Fethard,52.467,-7.688,55, , ,Tipperary,IRL,,1944,1965,Daily,4,2
7112,Fethard ,52.509,-7.643,148,Parsonshill, ,Tipperary,IRL,,1984,-999,Daily,4,2
408,Fethard On Sea,52.187,-6.837,18, , ,Wexford,IRL,,1949,1956,Daily,7,2
530,Finea,53.775,-7.388,67, , ,Cavan,IRL,,1944,1984,Daily,24,2
1330,Finea,53.803,-7.368,73,Maughera Hatcheries, ,Cavan,IRL,,1956,1972,Daily,24,2
2075,Finner Camp,54.49,-8.239,32, ,finner,Donegal,IRL,,2010,-999,Hourly|Daily,26,1
842,Fintown,54.867,-8.122,129, , ,Donegal,IRL,,1948,1964,Daily,26,2
1442,Fintown,54.867,-8.123,129,Lake View, ,Donegal,IRL,,1967,1968,Daily,26,2
1742,Fintown Kingarrow,54.891,-8.054,172, , ,Donegal,IRL,,1984,-999,Daily,26,2
6604,Fota Island ,51.892,-8.291,9,Golf Club, ,Cork,IRL,,1999,-999,Daily,1,2
108,Foulkesmill,52.306,-6.76,62,Longraigue, ,Wexford,IRL,,1873,-999,Daily,7,2
335,Foxford,54.033,-9.124,13,Coolcronan, ,Mayo,IRL,,1955,1959,Daily,21,2
2135,Foxford,53.983,-9.105,20, , ,Mayo,IRL,,1943,1993,Daily,21,2
3235,Foxford,53.937,-9.102,13,Ummoon, ,Mayo,IRL,,1953,1991,Daily,21,2
5335,Foxford,53.973,-9.117,21,Davitt Street, ,Mayo,IRL,,1993,2000,Daily,21,2
124,Foxrock,53.257,-6.152,43,Clarebeg, ,Dublin,IRL,,1890,1955,Daily,14,2
211,Foynes,52.6,-9.117,107,Coolnavee, ,Limerick,IRL,,1919,1944,Daily,5,2
611,Foynes Airport,52.605,-9.105,38, , ,Limerick,IRL,,1937,1946,Hourly|Daily,5,1
5806,Freemount Pumping Station,52.271,-8.887,132, , ,Cork,IRL,,1984,-999,Daily,1,2
1229,Frenchpark,53.868,-8.405,75,Corran Hse., ,Roscommon,IRL,,1944,1952,Daily,20,2
6129,Frenchpark Callow,53.905,-8.457,72, , ,Roscommon,IRL,,1986,-999,Daily,20,2
813,Freshford,52.722,-7.403,108,St.Josephs Coll., ,Kilkenny,IRL,,1939,1968,Daily,8,2
1640,Frosses,54.722,-8.239,188,Cronagass, ,Donegal,IRL,,1952,1972,Daily,26,2
2240,Frosses,54.7,-8.237,52,Meenagran, ,Donegal,IRL,,1972,2011,Daily,26,2
2325,Furbo,53.259,-9.218,20, , ,Galway,IRL,,2004,2007,Daily,19,2
3212,Galbally,52.4,-8.292,115, , ,Limerick,IRL,,1943,1985,Daily,5,2
3206,Galtee Mountains,52.32,-8.172,224, , ,Tipperary,IRL,,1951,1984,Daily,4,2
5406,Galtee Mountains Skeheenarinky,52.323,-8.16,283, , ,Tipperary,IRL,,1984,-999,Daily,4,2
7606,Galtee W.W.,52.308,-8.184,138,Loughananna, ,Limerick,IRL,,1996,2001,Daily,5,2
227,Galway,53.272,-9.038,5,Grammar Sch., ,Galway,IRL,,1931,1958,Daily,19,2
727,Galway,53.275,-9.037,0,Trans.Stn., ,Galway,IRL,,1941,1956,Daily,19,2
1525,Galway,53.258,-9.087,7,Colaiste Einde, ,Galway,IRL,,1964,1967,Daily,19,2
3427,Galway,53.286,-9.007,36,Ballybaan Trans.Stn., ,Galway,IRL,,1954,1969,Daily,19,2
3627,Galway,53.271,-9.053,8,The Fishery, ,Galway,IRL,,1958,1968,Daily,19,2
3927,Galway,53.272,-9.058,6,Univ.Coll., ,Galway,IRL,,1965,2012,Daily,19,2
5327,Galway Racecourse,53.289,-8.989,51, , ,Galway,IRL,,2000,2000,Daily,19,2
2021,Galway S.W.S.,53.272,-9.006,11, , ,Galway,IRL,,1978,1990,Hourly|Daily,19,1
405,Gap Of Dunloe,51.973,-9.62,28, , ,Kerry,IRL,,1885,-999,Daily,2,2
932,Garristown,53.567,-6.384,126, , ,Dublin,IRL,,1949,1992,Daily,14,2
2232,Garristown,53.542,-6.371,105,Tobergregan, ,Dublin,IRL,,1995,2000,Daily,14,2
6914,Garryhill,52.671,-6.836,139,Milltown, ,Carlow,IRL,,2003,2005,Daily,10,2
3422,Geashill,53.235,-7.32,87, , ,Offaly,IRL,,2002,-999,Daily,12,2
1434,Geesala,54.138,-9.889,22, , ,Mayo,IRL,,1971,1983,Daily,21,2
2034,Geesala Peat Power Ltd.,54.141,-9.059,48, , ,Mayo,IRL,,1988,1991,Daily,21,2
1029,Geevagh,54.092,-8.25,86, , ,Sligo,IRL,,1942,1956,Daily,22,2
7104,Gernapeka,51.837,-9.301,155, , ,Cork,IRL,,2009,-999,Daily,1,2
2334,Gladree,54.256,-10.059,13, , ,Mayo,IRL,,2003,-999,Daily,21,2
902,Glandore Rectory,51.559,-9.122,0, , ,Cork,IRL,,1946,1949,Daily,1,2
3404,Glanmire,51.903,-8.375,6,Northesk, ,Cork,IRL,,1952,1960,Daily,1,2
2306,Glantaine,52.103,-8.742,91, , ,Cork,IRL,,1944,1984,Daily,1,2
2529,Glasson,53.472,-7.858,62, , ,Westmeath,IRL,,1942,1994,Daily,16,2
2415,Glen Imaal ,52.991,-6.539,228,For.Stn., ,Wicklow,IRL,,1951,-999,Daily,9,2
3127,Glenamaddy ,53.592,-8.558,76,Gortnagier, ,Galway,IRL,,1944,-999,Daily,19,2
734,Glenamoy,54.238,-9.687,14, , ,Mayo,IRL,,1942,1986,Daily,21,2
1134,Glenamoy,54.237,-9.717,23, , ,Mayo,IRL,,1958,1998,Daily,21,2
5523,Glenasmole,53.222,-6.35,215,Castlekelly, ,Dublin,IRL,,1959,2013,Daily,14,2
5623,Glenasmole ,53.237,-6.358,183,Supts Lodge, ,Dublin,IRL,,1959,-999,Daily,14,2
1923,Glenasmole D.C.W.W.,53.237,-6.367,212, , ,Dublin,IRL,,1885,-999,Daily,14,2
1805,Glenbeigh,52.054,-9.936,83, , ,Kerry,IRL,,1949,1988,Daily,2,2
5105,Glenbeigh,52.055,-9.937,68, , ,Kerry,IRL,,2005,2013,Daily,2,2
5305,Glenbeigh-Dooks,52.073,-9.905,22, , ,Kerry,IRL,,2013,-999,Daily,2,2
3223,Glenbride Lodge,53.074,-6.452,318, , ,Wicklow,IRL,,1937,-999,Daily,9,2
2106,Glencairn,52.138,-8.002,46,St.Marys Abbey, ,Waterford,IRL,,1944,1997,Daily,3,2
8006,Glencairn ,52.12,-7.951,26,Tourtane House, ,Waterford,IRL,,2001,-999,Daily,3,2
3905,Glencar ,52.002,-9.904,56,Dreenagh, ,Kerry,IRL,,1983,-999,Daily,2,2
641,Glencolumbkille,54.707,-8.707,35, , ,Donegal,IRL,,1950,1991,Daily,26,2
1441,Glencolumbkille,54.704,-8.721,80,Cashel, ,Donegal,IRL,,1966,1976,Daily,26,2
1741,Glencolumbkille,54.707,-8.702,55,Drimroe, ,Donegal,IRL,,1976,1997,Daily,26,2
3424,Glencree,53.19,-6.287,297,Aurora, ,Wicklow,IRL,,1984,1997,Daily,9,2
1624,Glencullen,53.224,-6.258,296,Tibradden, ,Dublin,IRL,,1950,1967,Daily,14,2
320,Glendalough,53.003,-6.34,284,For.Stn., ,Wicklow,IRL,,1951,1955,Daily,9,2
2320,Glendalough,53.007,-6.321,244, , ,Wicklow,IRL,,1993,1999,Daily,9,2
420,Glendalough For.,53.004,-6.29,143,Laragh, ,Wicklow,IRL,,1956,1957,Daily,9,2
2824,Glenealy ,52.924,-6.143,126,Kilmacurragh Park, ,Wicklow,IRL,,1981,-999,Daily,9,2
1537,Glenfarne,54.287,-7.985,63, , ,Leitrim,IRL,,1942,1984,Daily,23,2
1701,Glengarriff,51.75,-9.539,0,Rossdoon, ,Cork,IRL,,1990,2008,Daily,1,2
201,Glengarriff ,51.734,-9.541,0,Ilnacullin, ,Cork,IRL,,1940,-999,Daily,1,2
329,Glengevlin,54.19,-7.888,137, , ,Cavan,IRL,,1929,1963,Daily,24,2
533,Glenisland,53.905,-9.408,29, , ,Mayo,IRL,,1942,1964,Daily,21,2
1420,Glenmacnass,53.056,-6.333,258, , ,Wicklow,IRL,,1965,-999,Daily,9,2
220,Glenmalure,52.953,-6.35,123,For.Stn., ,Wicklow,IRL,,1951,1953,Daily,9,2
1120,Glenmalure For.,52.94,-6.323,121,Kirikee, ,Wicklow,IRL,,1953,1971,Daily,9,2
914,Glenmore,52.335,-7.004,15,Railway Stn, ,Kilkenny,IRL,,1946,1954,Daily,8,2
1114,Glenmore,52.325,-7.008,37,Rathinure, ,Kilkenny,IRL,,1954,1954,Daily,8,2
1419,Glenstal Priory,52.657,-8.387,96, , ,Limerick,IRL,,1956,1959,Daily,5,2
441,Glenties Hatchery,54.788,-8.286,44, , ,Donegal,IRL,,1923,-999,Daily,26,2
2541,Glentornan,55.018,-8.155,60, , ,Donegal,IRL,,2004,2012,Daily,26,2
1534,Glenturk,54.206,-9.74,50, , ,Mayo,IRL,,1971,1991,Daily,21,2
1244,Glenveagh,55.051,-7.936,54, , ,Donegal,IRL,,1967,2010,Daily,26,2
2044,Glenveagh Castle,55.035,-7.967,88, , ,Donegal,IRL,,1996,-999,Daily,26,2
1605,Glenvickee ,51.971,-9.824,224,Caragh River Area, ,Kerry,IRL,,1949,-999,Daily,2,2
2406,Glenville,52.04,-8.421,127, , ,Cork,IRL,,1944,1996,Daily,1,2
7206,Glenville,52.074,-8.47,169,Glenasack, ,Cork,IRL,,1993,1997,Daily,1,2
2011,Glin,52.568,-9.283,28, , ,Limerick,IRL,,1943,1994,Daily,5,2
1014,Glynn,52.492,-6.903,61, , ,Carlow,IRL,,1946,1960,Daily,10,2
5615,Glynn-Bulgan,52.369,-6.593,68, , ,Wexford,IRL,,2013,-999,Daily,7,2
4802,Goleen,51.504,-9.702,40, , ,Cork,IRL,,1997,-999,Daily,1,2
116,Gorey,52.652,-6.224,9,Courtown Hse., ,Wexford,IRL,,1866,1958,Daily,7,2
216,Gorey,52.668,-6.3,53,Rams Gate, ,Wexford,IRL,,1930,1957,Daily,7,2
816,Gorey,52.672,-6.292,42, , ,Wexford,IRL,,1951,1985,Daily,7,2
1216,Gorey,52.667,-6.285,32,Treatment Works, ,Wexford,IRL,,1985,2010,Daily,7,2
1316,Gorey,52.653,-6.288,45,Knockmullen, ,Wexford,IRL,,1990,1997,Daily,7,2
1816,Gorey-Gardencity,52.676,-6.286,37, , ,Wexford,IRL,,2010,-999,Daily,7,2
1432,Gormanston,53.65,-6.233,18, , ,Meath,IRL,,1965,1976,Daily,15,2
421,Gort,53.067,-8.818,25, , ,Galway,IRL,,1943,1971,Daily,19,2
1421,Gort,53.069,-8.59,151,Derrybrien, ,Galway,IRL,,1952,1982,Daily,19,2
2121,Gort-Derrybrien Ii,53.06,-8.601,100, , ,Galway,IRL,,1982,-999,Daily,19,2
2740,Gortnaleck,54.372,-8.489,163, , ,Sligo,IRL,,1985,1995,Daily,22,2
2704,Gouganebarra,51.837,-9.308,207, , ,Cork,IRL,,1948,2009,Daily,1,2
528,Gowla,53.467,-8.318,53,Exp.Stn., ,Galway,IRL,,1952,1959,Daily,19,2
1737,Gowna,53.885,-7.502,63,Sallaghan Bridge, ,Cavan,IRL,,1944,1973,Daily,24,2
6514,Gowran,52.622,-7.069,63, , ,Kilkenny,IRL,,1994,-999,Daily,8,2
3614,Graiguenamanagh,52.534,-6.951,23, , ,Carlow,IRL,,1951,1998,Daily,10,2
6814,Graiguenamanagh ,52.505,-6.937,15,Ballyogan House, ,Kilkenny,IRL,,2001,-999,Daily,8,2
1030,Granard,53.775,-7.487,118, , ,Longford,IRL,,1944,1975,Daily,18,2
7229,Granard ,53.787,-7.54,121,Ballymore, ,Longford,IRL,,2005,-999,Daily,18,2
1830,Granard Springstown,53.772,-7.42,61, , ,Longford,IRL,,1985,2005,Daily,18,2
640,Grange,54.388,-8.518,20, , ,Sligo,IRL,,1942,1973,Daily,22,2
1007,Grange,51.991,-7.75,84,Ballylangadon, ,Waterford,IRL,,1977,2001,Daily,3,2
6614,Grange Con,53.002,-6.723,142, , ,Wicklow,IRL,,1995,2003,Daily,9,2
3040,Grange-Mountemple,54.417,-8.484,37, , ,Sligo,IRL,,1996,-999,Daily,22,2
542,Greencastle,55.206,-6.985,23, , ,Donegal,IRL,,1948,-999,Daily,26,2
338,Greenore,54.025,-6.125,0, , ,Louth,IRL,,1876,1966,Daily,17,2
424,Greystones,53.14,-6.058,5,Mt.Offaly, ,Wicklow,IRL,,1928,1950,Daily,9,2
724,Greystones,53.137,-6.067,18,Inglefield, ,Wicklow,IRL,,1952,1956,Daily,9,2
3724,Greystones,53.125,-6.053,10,Charlesland G.C., ,Wicklow,IRL,,1992,2001,Daily,9,2
527,Gurteen,53.358,-8.585,88, , ,Galway,IRL,,1941,1953,Daily,19,2
1236,Gurteen,53.988,-8.507,69, , ,Sligo,IRL,,1942,1993,Daily,22,2
1475,Gurteen,53.052,-8.005,61, ,gurteen,Tipperary,IRL,,2008,-999,Hourly|Daily,4,1
4619,Gurteen,53.037,-8.008,73,Agr.Coll., ,Tipperary,IRL,,1951,1967,Daily,4,2
241,Gweedore,55.041,-8.186,57,Meenacuing, ,Donegal,IRL,,1948,1958,Daily,26,2
1341,Gweedore,55.04,-8.19,57,Gen.Stn., ,Donegal,IRL,,1958,1997,Daily,26,2
141,Gweedore E.S.B.,55.05,-8.226,73,Clady, ,Donegal,IRL,,1956,1958,Daily,26,2
2441,Gweedore Weir,55.043,-8.225,86, , ,Donegal,IRL,,1997,-999,Daily,26,2
1738,Hackballscross,54.026,-6.521,64, , ,Louth,IRL,,1951,1984,Daily,17,2
115,Hacketstown Rectory,52.867,-6.55,146, , ,Carlow,IRL,,1910,1944,Daily,10,2
2115,Hacketstown ,52.857,-6.552,183,Voc.Sch., ,Carlow,IRL,,1949,-999,Daily,10,2
4527,Headford O.P.W.,53.469,-9.101,16, , ,Galway,IRL,,1981,-999,Daily,19,2
4511,Herbertstown,52.522,-8.441,87,Agr.Res.Stn., ,Limerick,IRL,,1964,1965,Daily,5,2
912,Hollyford,52.633,-8.107,199, , ,Tipperary,IRL,,1943,1958,Daily,4,2
315,Hollyfort,52.709,-6.342,135, , ,Wexford,IRL,,1949,1963,Daily,7,2
1527,Hollymount,53.657,-9.117,46, , ,Mayo,IRL,,1941,2006,Daily,21,2
5123,Hollywood,53.103,-6.601,175, , ,Wicklow,IRL,,1949,1983,Daily,9,2
9512,Holycross-Cabragh Wetlands,52.637,-7.836,94, , ,Tipperary,IRL,,2012,-999,Daily,4,2
3522,Horseleap,53.376,-7.575,73, , ,Offaly,IRL,,2007,-999,Daily,12,2
4111,Hospital,52.468,-8.425,92,Voc.Sch., ,Limerick,IRL,,1957,2001,Daily,5,2
3023,Howth,53.367,-6.071,96,Danesfort, ,Dublin,IRL,,1931,1989,Daily,14,2
6023,Howth,53.387,-6.075,19,D.C., ,Dublin,IRL,,1962,1994,Daily,14,2
2623,Howth Castle,53.385,-6.073,31, , ,Dublin,IRL,,1913,1971,Daily,14,2
1443,Illies ,55.151,-7.342,160,Pollan Dam Waterworks, ,Donegal,IRL,,2002,-999,Daily,26,2
417,Inagh-Mt.Callan,52.838,-9.236,103, , ,Clare,IRL,,1897,-999,Daily,6,2
2026,Inishbofin,53.618,-10.185,17, , ,Galway,IRL,,1984,-999,Daily,19,2
3704,Inishcarra ,51.9,-8.657,77,Gen.Stn., ,Cork,IRL,,1954,-999,Daily,1,2
2221,Inishere,53.059,-9.52,54, , ,Galway,IRL,,1982,-999,Daily,19,2
1925,Inishmore,53.124,-9.685,42, , ,Galway,IRL,,1995,-999,Daily,19,2
2613,Inistioge,52.484,-7.051,11, , ,Kilkenny,IRL,,1946,1984,Daily,8,2
1002,Innishannon,51.758,-8.653,31, , ,Cork,IRL,,1950,1962,Daily,1,2
3802,Innishannonn,51.775,-8.667,89,Skevenish, ,Cork,IRL,,1981,1985,Daily,1,2
1038,Inniskeen,54.003,-6.573,51, , ,Monaghan,IRL,,1943,1966,Daily,25,2
2534,Inver,54.251,-9.858,16, , ,Mayo,IRL,,2003,2005,Daily,21,2
2840,Inver,54.652,-8.268,11, , ,Donegal,IRL,,1987,1991,Daily,26,2
425,Inverin,53.237,-9.423,10, , ,Galway,IRL,,1950,1969,Daily,19,2
4514,John F. Kennedy Park,52.317,-6.938,70, , ,Wexford,IRL,,1965,-999,Daily,7,2
3013,Johnstown,52.741,-7.552,140, , ,Kilkenny,IRL,,1950,1985,Daily,8,2
915,Johnstown Castle,52.288,-6.5,43, , ,Wexford,IRL,,1914,2009,Daily,7,2
1775,Johnstownii,52.292,-6.491,43, ,johnstown-castle,Wexford,IRL,,2009,-999,Hourly|Daily,7,1
1132,Julianstown,53.67,-6.285,7, , ,Meath,IRL,,1949,1983,Daily,15,2
1406,Kanturk ,52.173,-8.9,85,Voc.Sch., ,Cork,IRL,,1944,-999,Daily,1,2
2129,Keadue,54.05,-8.137,69, , ,Roscommon,IRL,,1928,1993,Daily,20,2
901,Kealkil,51.739,-9.383,84, , ,Cork,IRL,,1950,1969,Daily,1,2
1301,Kealkill,51.755,-9.307,190,Maughanaclea, ,Cork,IRL,,1978,1990,Daily,1,2
2001,Kealkill East,51.75,-9.357,118, , ,Cork,IRL,,1993,2008,Daily,1,2
834,Keel,53.97,-10.09,12, , ,Mayo,IRL,,1942,1991,Daily,21,2
2234,Keel,53.973,-10.072,3,Sandy Banks, ,Mayo,IRL,,1994,1996,Daily,21,2
2435,Keenagh Beg,54.035,-9.483,92, , ,Mayo,IRL,,1944,-999,Daily,21,2
931,Kells,53.735,-6.842,65,Headfort, ,Meath,IRL,,1892,2002,Daily,15,2
2829,Kenagh,53.62,-7.808,58, , ,Longford,IRL,,1944,1967,Daily,18,2
4029,Kenagh,53.618,-7.904,49,Derraghan, ,Longford,IRL,,1951,1993,Daily,18,2
5129,Kenagh,53.622,-7.852,54,Lough Bannow, ,Longford,IRL,,1970,1998,Daily,18,2
5429,Kenagh Begnagh,53.705,-7.874,43, , ,Longford,IRL,,1983,1998,Daily,18,2
203,Kenmare,51.87,-9.557,41,Sheen Falls, ,Kerry,IRL,,1916,1993,Daily,2,2
303,Kenmare,51.853,-9.718,0,Dromore Castle, ,Kerry,IRL,,1874,1958,Daily,2,2
1503,Kenmare,51.838,-9.767,0,Doon, ,Kerry,IRL,,1953,1993,Daily,2,2
1903,Kenmare,51.876,-9.586,11, , ,Kerry,IRL,,1994,-999,Daily,2,2
603,Kenmare ,51.768,-9.775,27,Derreen, ,Kerry,IRL,,1878,-999,Daily,2,2
1044,Kerrykeel,55.136,-7.658,31, , ,Donegal,IRL,,1950,1991,Daily,26,2
2144,Kerrykeel,55.153,-7.659,47,Shore Road, ,Donegal,IRL,,2002,2004,Daily,26,2
1637,Keshcarrigan G.S.,54.017,-7.938,76, , ,Leitrim,IRL,,1942,-999,Daily,23,2
6611,Kilbane ,52.804,-8.576,53,Clongaheen, ,Clare,IRL,,2014,-999,Daily,6,2
2022,Kilbeggan,53.368,-7.492,69, , ,Westmeath,IRL,,1942,1985,Daily,16,2
7106,Kilbeheny,52.289,-8.183,107,Ballinatona, ,Limerick,IRL,,1992,1996,Daily,5,2
3514,Kilberry,53.041,-7.007,56, , ,Kildare,IRL,,1950,1993,Daily,13,2
6714,Kilberry Ii,53.026,-6.992,60, , ,Kildare,IRL,,1999,-999,Daily,13,2
4024,Kilbride-Togher,52.889,-6.102,28, , ,Wicklow,IRL,,2004,-999,Daily,9,2
2502,Kilbrittain,51.671,-8.687,68, , ,Cork,IRL,,1950,2012,Daily,1,2
2140,Kilcar,54.659,-8.518,160,For.Stn., ,Donegal,IRL,,1967,1976,Daily,26,2
2340,Kilcar Cronasillagh,54.639,-8.54,179, , ,Donegal,IRL,,1976,-999,Daily,26,2
2421,Kilchreest,53.159,-8.673,103, , ,Galway,IRL,,1984,1999,Daily,19,2
2241,Kilclooney More,54.807,-8.438,12, , ,Donegal,IRL,,1995,-999,Daily,26,2
3523,Kilcock,53.402,-6.67,67, , ,Kildare,IRL,,1942,1978,Daily,13,2
621,Kilcolgan,53.207,-8.868,12, , ,Galway,IRL,,1943,1985,Daily,19,2
1827,Kilconly,53.57,-8.983,41, , ,Galway,IRL,,1941,1998,Daily,19,2
1028,Kilconnel,53.325,-8.4,97, , ,Galway,IRL,,1943,1983,Daily,19,2
2624,Kilcoole,53.105,-6.059,14, , ,Wicklow,IRL,,1979,1981,Daily,9,2
3624,Kilcoole ,53.101,-6.043,2,Treatment Plant, ,Wicklow,IRL,,1985,-999,Daily,9,2
1522,Kilcormac,53.172,-7.723,69, , ,Offaly,IRL,,1942,1989,Daily,12,2
701,Kilcrohane,51.575,-9.703,18, , ,Cork,IRL,,1950,1960,Daily,1,2
1601,Kilcrohane,51.585,-9.658,9,Rosskerrig, ,Cork,IRL,,1984,1987,Daily,1,2
4723,Kilcullen,53.123,-6.742,116, , ,Kildare,IRL,,1949,1990,Daily,13,2
714,Kildare,53.155,-6.903,99,St.Brigids Deanery, ,Kildare,IRL,,1939,1952,Daily,13,2
3714,Kildare,53.153,-6.906,92, , ,Kildare,IRL,,1951,1992,Daily,13,2
1516,Kildermot,52.686,-6.208,29, , ,Wexford,IRL,,1997,2006,Daily,7,2
4406,Kildorrery,52.24,-8.423,81, , ,Cork,IRL,,1944,1962,Daily,1,2
5606,Kildorrery,52.241,-8.419,84, , ,Cork,IRL,,1984,1994,Daily,1,2
1511,Kildysart,52.672,-9.103,11, , ,Clare,IRL,,1943,1985,Daily,6,2
6711,Kildysart ,52.656,-9.117,32,Cappanavarnogue, ,Clare,IRL,,2014,-999,Daily,6,2
918,Kilfenora,52.987,-9.218,66, , ,Clare,IRL,,1943,1969,Daily,6,2
2511,Kilfinane,52.353,-8.458,199, , ,Limerick,IRL,,1943,1985,Daily,5,2
5411,Kilfinnane Education Centre,52.356,-8.469,184, , ,Limerick,IRL,,1987,2000,Daily,5,2
1003,Kilgarvan,51.903,-9.437,42, , ,Kerry,IRL,,1949,1969,Daily,2,2
1603,Kilgarvan ,51.901,-9.438,24,Gortnaboul, ,Kerry,IRL,,1969,-999,Daily,2,2
517,Kilkee,52.675,-9.638,11, , ,Clare,IRL,,1943,2013,Daily,6,2
2117,Kilkee,52.639,-9.685,21,Moveen, ,Clare,IRL,,2013,-999,Daily,6,2
5127,Kilkeeran,53.692,-9.267,18, , ,Mayo,IRL,,1994,-999,Daily,21,2
435,Kilkelly,53.867,-8.85,79, , ,Mayo,IRL,,1942,1949,Daily,21,2
1213,Kilkenny,52.653,-7.257,57, , ,Kilkenny,IRL,,1944,1973,Daily,8,2
1313,Kilkenny,52.658,-7.257,49,Co.Hosp., ,Kilkenny,IRL,,1945,1967,Daily,8,2
3613,Kilkenny,52.659,-7.268,56, , ,Kilkenny,IRL,,1957,2008,Hourly|Daily,8,1
3813,Kilkenny,52.635,-7.192,59,Lavistown Hse., ,Kilkenny,IRL,,1962,1973,Daily,8,2
4513,Kilkenny ,52.636,-7.192,62,Lavistown House Ii, ,Kilkenny,IRL,,1984,-999,Daily,8,2
5613,Kilkenny Greenshill,52.657,-7.253,45, , ,Kilkenny,IRL,,2010,-999,Daily,8,2
407,Kill,52.173,-7.333,78, , ,Waterford,IRL,,1950,1990,Daily,3,2
4523,Kill,53.241,-6.588,111, , ,Kildare,IRL,,1949,1993,Daily,13,2
1926,Killadoon,53.672,-9.885,32, , ,Mayo,IRL,,1984,-999,Daily,21,2
1535,Killala,54.208,-9.218,15, , ,Mayo,IRL,,1942,1988,Daily,21,2
319,Killaloe,52.805,-8.438,36,Ballina, ,Tipperary,IRL,,1908,1959,Daily,4,2
6019,Killaloe Docks,52.806,-8.443,53, , ,Clare,IRL,,1983,-999,Daily,6,2
5119,Killaloe O.P.W.,52.803,-8.437,32, , ,Clare,IRL,,1957,1983,Daily,6,2
5515,Killanne-Corrageen,52.52,-6.801,235, , ,Wexford,IRL,,2012,2014,Daily,7,2
236,Killargue,54.225,-8.205,78, , ,Leitrim,IRL,,1942,1955,Daily,23,2
505,Killarney,52.067,-9.507,45,St.Finans Hosp., ,Kerry,IRL,,1889,1988,Daily,2,2
605,Killarney,52.008,-9.5,85,B.V.M.Park, ,Kerry,IRL,,1924,1991,Daily,2,2
1105,Killarney,52.035,-9.488,40,Muckross For.Stn., ,Kerry,IRL,,1941,1976,Daily,2,2
2705,Killarney,52.056,-9.49,39,Gt.Southern Hotel, ,Kerry,IRL,,1958,1968,Daily,2,2
2905,Killarney,52.053,-9.5,36,Drom Aulinn, ,Kerry,IRL,,1966,1972,Daily,2,2
3005,Killarney,52.057,-9.558,17,Golf Club, ,Kerry,IRL,,1967,1972,Daily,2,2
3105,Killarney,51.992,-9.437,319,Gortdromakiery, ,Kerry,IRL,,1968,1995,Daily,2,2
3405,Killarney,52.05,-9.455,70,Lissivigeen N.S., ,Kerry,IRL,,1969,1984,Daily,2,2
3505,Killarney,52.069,-9.517,40,Farm Centre, ,Kerry,IRL,,1976,1992,Daily,2,2
3205,Killarney ,52.017,-9.492,44,Muckross Hse., ,Kerry,IRL,,1968,-999,Daily,2,2
1526,Killary Youth Hostel,53.619,-9.856,14, , ,Galway,IRL,,1981,1994,Daily,19,2
4904,Killeagh ,51.973,-7.985,83,Monabraher, ,Cork,IRL,,1976,-999,Daily,1,2
7304,Killeagh Mogeely,51.939,-8.023,17, , ,Cork,IRL,,2014,-999,Daily,1,2
606,Killenagh,52.052,-7.902,104, , ,Waterford,IRL,,1944,1955,Daily,3,2
3912,Killenaule,52.568,-7.67,158,Voc.Sch., ,Tipperary,IRL,,1944,1971,Daily,4,2
6012,Killenaule,52.568,-7.67,158,Riversdale, ,Tipperary,IRL,,1971,1977,Daily,4,2
437,Killeshandra,54.009,-7.523,75, , ,Cavan,IRL,,1951,1959,Daily,24,2
4537,Killeshandra Town Lake,54.02,-7.521,53, , ,Cavan,IRL,,1985,2000,Daily,24,2
5837,Killeshandra ,54.006,-7.539,51,Bawn, ,Cavan,IRL,,2000,-999,Daily,24,2
2919,Killimor,53.159,-8.285,52, , ,Galway,IRL,,1943,1984,Daily,19,2
723,Killiney,53.25,-6.117,16,Rathleigh, ,Dublin,IRL,,1925,1949,Daily,14,2
5823,Killiney,53.258,-6.117,53,Tedburn, ,Dublin,IRL,,1961,1992,Daily,14,2
2605,Killorglin,52.103,-9.786,23,Voc.Sch., ,Kerry,IRL,,1952,1982,Daily,2,2
705,Killorglin ,52.133,-9.783,18,Callinafercy, ,Kerry,IRL,,1921,-999,Daily,2,2
3805,Killorglin V.S. Ii,52.1,-9.776,15, , ,Kerry,IRL,,1982,1988,Daily,2,2
2831,Killucan,53.508,-7.136,88, , ,Westmeath,IRL,,1951,1983,Daily,16,2
3531,Killucan,53.489,-7.1,76,Hyde Park, ,Westmeath,IRL,,1957,1975,Daily,16,2
5831,Killucan,53.501,-7.107,74,Ballyhaw, ,Westmeath,IRL,,2010,2014,Daily,16,2
215,Killurin,52.376,-6.572,35, , ,Wexford,IRL,,1949,1962,Daily,7,2
1140,Killybegs,54.624,-8.44,0, , ,Donegal,IRL,,1950,1994,Daily,26,2
2940,Killybegs Waterworks,54.651,-8.45,97, , ,Donegal,IRL,,1995,2002,Daily,26,2
2042,Killygordon-Ballyarrell,54.788,-7.653,30, , ,Donegal,IRL,,1999,-999,Daily,26,2
4312,Kilmacow,52.302,-7.158,21, , ,Kilkenny,IRL,,1950,1984,Daily,8,2
743,Kilmacrennan,55.024,-7.773,38, , ,Donegal,IRL,,1950,1984,Daily,26,2
1543,Kilmacrennan ,55.024,-7.784,35,Massreagh, ,Donegal,IRL,,2002,-999,Daily,26,2
1507,Kilmacthomas ,52.207,-7.475,72,Graiguerush, ,Waterford,IRL,,1985,-999,Daily,3,2
1927,Kilmaine,53.575,-9.122,32, , ,Mayo,IRL,,1941,1983,Daily,21,2
1818,Kilmaley A.F.T.,52.824,-9.159,106, , ,Clare,IRL,,1983,2010,Daily,6,2
2411,Kilmallock,52.392,-8.572,85, , ,Limerick,IRL,,1943,1999,Daily,5,2
4311,Kilmallock,52.506,-8.525,73,L.Gur, ,Limerick,IRL,,1961,1965,Daily,5,2
1311,Kilmeedy,52.418,-8.885,124,Heathfield, ,Limerick,IRL,,1938,1963,Daily,5,2
3811,Kilmeedy,52.409,-8.917,92, , ,Limerick,IRL,,1952,1995,Daily,5,2
2631,Kilmessan,53.555,-6.656,62, , ,Meath,IRL,,1949,1990,Daily,15,2
1017,Kilmihil,52.722,-9.32,73,Voc.Sch., ,Clare,IRL,,1966,1969,Daily,6,2
1317,Kilmihil ,52.725,-9.358,74,Shyan, ,Clare,IRL,,1984,-999,Daily,6,2
2713,Kilmoganny,52.456,-7.324,176, , ,Kilkenny,IRL,,1946,1980,Daily,8,2
508,Kilmore Quay,52.173,-6.576,0, , ,Wexford,IRL,,1949,1983,Daily,7,2
929,Kilmovee,53.89,-8.702,101, , ,Mayo,IRL,,1942,1956,Daily,21,2
316,Kilmuckridge,52.517,-6.275,57,Upton Hydro, ,Wexford,IRL,,1940,1955,Daily,7,2
1016,Kilmuckridge,52.508,-6.239,0,Morriscastle, ,Wexford,IRL,,1953,1978,Daily,7,2
1137,Kilnaleck,53.855,-7.318,120, , ,Cavan,IRL,,1942,1986,Daily,24,2
4437,Kilnaleck,53.854,-7.336,96,Omard, ,Cavan,IRL,,1985,1996,Daily,24,2
1930,Kilnaleck Tullyboy Crosserlough,53.841,-7.301,103, , ,Cavan,IRL,,1987,1989,Daily,24,2
2619,Kilrickle,53.225,-8.45,92, , ,Galway,IRL,,1943,1989,Daily,19,2
625,Kilronan,53.119,-9.667,1, , ,Galway,IRL,,1950,1996,Daily,19,2
3911,Kilrush,52.638,-9.483,16,Dist.Hosp., ,Clare,IRL,,1952,1974,Daily,6,2
5211,Kilrush Ballynote West,52.622,-9.469,17, , ,Clare,IRL,,1984,2000,Daily,6,2
3712,Kilsheelan,52.357,-7.573,38, , ,Tipperary,IRL,,1943,1985,Daily,4,2
9112,Kilsheelan,52.356,-7.572,47, , ,Tipperary,IRL,,2005,-999,Daily,4,2
5131,Kilskyre ,53.689,-6.958,80,Robinstown, ,Meath,IRL,,1998,-999,Daily,15,2
715,Kiltealy,52.559,-6.741,117, , ,Wexford,IRL,,1950,1960,Daily,7,2
4115,Kiltealy-Askinvillar,52.553,-6.754,117, , ,Wexford,IRL,,1984,-999,Daily,7,2
415,Kiltegan,52.903,-6.603,149, , ,Wicklow,IRL,,1949,1956,Daily,9,2
2035,Kiltimagh,53.852,-8.992,56, , ,Mayo,IRL,,1943,1978,Daily,21,2
3935,KiltimaghIi,53.841,-9.003,63, , ,Mayo,IRL,,1979,1991,Daily,21,2
2719,Kiltormer,53.237,-8.269,74, , ,Galway,IRL,,1943,-999,Daily,19,2
1240,Kiltyclogher,54.355,-8.035,85, , ,Leitrim,IRL,,1951,2003,Daily,23,2
2706,Kilworth,52.172,-8.25,57, , ,Cork,IRL,,1944,1975,Daily,1,2
8706,Kilworth-Kilally,52.186,-8.255,90, , ,Cork,IRL,,2008,-999,Daily,1,2
2041,Kincasslagh,55.021,-8.385,25, , ,Donegal,IRL,,1984,-999,Daily,26,2
1744,Kindrum,55.222,-7.7,26, , ,Donegal,IRL,,1984,2001,Daily,26,2
738,Kingscourt,53.904,-6.803,110, , ,Cavan,IRL,,1943,1988,Daily,24,2
3638,Kingscourt ,53.934,-6.769,50,Drummond, ,Monaghan,IRL,,1990,-999,Daily,25,2
3038,Kingscourt Gypsum,53.87,-6.803,71, , ,Meath,IRL,,1981,-999,Daily,15,2
1340,Kinlough,54.441,-8.286,41, , ,Leitrim,IRL,,1951,2011,Daily,23,2
3240,Kinlough,54.451,-8.259,32,Edenville, ,Leitrim,IRL,,1999,2002,Daily,23,2
1131,Kinnegad,53.453,-7.101,74, , ,Westmeath,IRL,,1942,1993,Daily,16,2
4631,Kinnegad ,53.456,-7.107,78,Mullingar Road, ,Westmeath,IRL,,1993,-999,Daily,16,2
2019,Kinnitty,53.1,-7.72,110, , ,Offaly,IRL,,1942,1985,Daily,12,2
5619,Kinnitty Castle,53.102,-7.692,188, , ,Offaly,IRL,,1962,1994,Daily,12,2
102,Kinsale,51.717,-8.4,80,Nohoval Rectory, ,Cork,IRL,,1940,1945,Daily,1,2
202,Kinsale,51.7,-8.435,34,Walton Court, ,Cork,IRL,,1945,1951,Daily,1,2
1202,Kinsale,51.704,-8.52,9,Scilly Hse., ,Cork,IRL,,1921,1966,Daily,1,2
3102,Kinsale,51.701,-8.522,57,St.Josephs Convent, ,Cork,IRL,,1963,1974,Daily,1,2
3502,Kinsale,51.708,-8.522,18,Rathbeg, ,Cork,IRL,,1974,1989,Daily,1,2
2802,Kinsale ,51.704,-8.524,31,Voc.Sch., ,Cork,IRL,,1952,-999,Daily,1,2
9106,Kinsalebeg-Ferrypoint,51.955,-7.82,40, , ,Waterford,IRL,,2012,2015,Daily,3,2
9106,Kinsalebeg-Ferrypoint,51.955,-7.82,40, , ,Waterford,IRL,,2012,-999,Daily,3,2
1232,Kinsaley,53.42,-6.17,21,Agr.Res.Stn., ,Dublin,IRL,,1961,2004,Daily,14,2
3036,Kinsellagh,54.302,-8.407,125, , ,Sligo,IRL,,1989,-999,Daily,22,2
521,Kinvara,53.137,-8.935,11, , ,Galway,IRL,,1943,1999,Daily,19,2
6123,Kippure,53.173,-6.325,630,T.V.Trans.Stn., ,Wicklow,IRL,,1962,1968,Daily,9,2
5205,Knightstown,51.922,-10.3,43, , ,Kerry,IRL,,2006,-999,Daily,2,2
911,Knock,52.623,-9.333,0, , ,Clare,IRL,,1943,1961,Daily,6,2
1935,Knock,53.79,-8.918,93, , ,Mayo,IRL,,1942,1984,Daily,21,2
4935,Knock Airport,53.904,-8.817,181, ,knock,Mayo,IRL,,1986,-999,Hourly|Daily,21,1
1712,Knockaderry Resv.No.1,52.206,-7.269,69, , ,Waterford,IRL,,1886,2008,Daily,3,2
1912,Knockaderry Resv.No.2,52.205,-7.273,66, , ,Waterford,IRL,,1905,1990,Daily,3,2
6511,Knockaderry Lissaniska,52.453,-8.976,75, , ,Limerick,IRL,,2014,-999,Daily,5,2
4006,Knockanore,52.058,-7.886,95, , ,Waterford,IRL,,1964,-999,Daily,3,2
411,Knocklong,52.453,-8.418,95,Kilfrush, ,Limerick,IRL,,1917,1951,Daily,5,2
9623,Knocklyon,53.273,-6.317,103,St.Columcilles, ,Dublin,IRL,,2004,2005,Daily,14,2
3306,Knockmealdown Mtns.,52.217,-7.937,250,The Gap, ,Waterford,IRL,,1952,1963,Daily,3,2
910,Knocknagoshel,52.333,-9.372,125, , ,Kerry,IRL,,1941,1995,Daily,2,2
2710,Knocknagoshel ,52.29,-9.372,198,Meinleitrim, ,Kerry,IRL,,1992,-999,Daily,2,2
2626,Kylemore Abbey Gardens,53.558,-9.907,33, , ,Galway,IRL,,2000,-999,Daily,19,2
3511,Labasheeda,52.62,-9.242,4, , ,Clare,IRL,,1951,1989,Daily,6,2
7004,Ladysbridge-Parknahyla,51.884,-8.05,81, , ,Cork,IRL,,2009,2016,Daily,1,2
2327,Laghtgeorge,53.353,-8.925,16, , ,Galway,IRL,,1941,1998,Daily,19,2
1735,Laherdane,54.025,-9.32,55, , ,Mayo,IRL,,1942,1984,Daily,21,2
4135,Laherdane,54.034,-9.322,44,Cum, ,Mayo,IRL,,1983,-999,Daily,21,2
817,Lahinch,52.926,-9.34,36, , ,Clare,IRL,,1951,1984,Daily,6,2
1023,Lambay Island,53.483,-6.033,0, , ,Dublin,IRL,,1907,1943,Daily,14,2
4929,Lanesboro ,53.668,-7.933,46,Doire Dharog, ,Longford,IRL,,1964,-999,Daily,18,2
6929,Lanesboro ,53.673,-8.019,34,Cloonadra, ,Roscommon,IRL,,1996,-999,Daily,20,2
5529,Lanesboro Cullbeg,53.787,-7.952,47, , ,Roscommon,IRL,,1984,1998,Daily,20,2
2229,Lanesboro O.P.W.,53.672,-7.988,46, , ,Roscommon,IRL,,1929,1995,Daily,20,2
2620,Laragh,53.007,-6.272,223,Trooperstown, ,Wicklow,IRL,,1999,2004,Daily,9,2
1403,Lauragh,51.758,-9.773,36, , ,Kerry,IRL,,1952,1985,Daily,2,2
1530,Lavagh,53.823,-7.325,67,Ballyheelan, ,Cavan,IRL,,1972,1977,Daily,24,2
1832,Laytown,53.686,-6.24,4, , ,Meath,IRL,,1983,1985,Daily,15,2
1932,Laytown,53.674,-6.258,12,The Ninch, ,Meath,IRL,,1991,1996,Daily,15,2
207,Leamybrien,52.168,-7.52,73, , ,Waterford,IRL,,1944,1985,Daily,3,2
2302,Leap,51.576,-9.134,29, , ,Cork,IRL,,1949,1970,Daily,1,2
4129,Lecarrow,53.54,-8.042,53, , ,Roscommon,IRL,,1952,-999,Daily,20,2
2726,Leenane-Glanagimla,53.603,-9.668,21, , ,Galway,IRL,,2005,-999,Daily,19,2
2214,Leighlinbridge,52.733,-6.975,48, , ,Carlow,IRL,,1944,1984,Daily,10,2
4223,Leixlip,53.358,-6.486,47,Gen.Stn., ,Dublin,IRL,,1949,2012,Daily,14,2
2422,Lemanaghan,53.283,-7.77,48,Bord Na Mona, ,Offaly,IRL,,1962,1989,Daily,12,2
726,Letterfrack,53.553,-9.94,49, , ,Galway,IRL,,1950,1985,Daily,19,2
443,Letterkenny,54.941,-7.737,17, , ,Donegal,IRL,,1948,1972,Daily,26,2
1243,Letterkenny,54.953,-7.7,3,Magherenan, ,Donegal,IRL,,1978,2011,Daily,26,2
1043,Letterkenny-Dromore,54.941,-7.674,74, , ,Donegal,IRL,,1970,-999,Daily,26,2
825,Lettermore,53.289,-9.653,4, , ,Galway,IRL,,1950,1985,Daily,19,2
5780,Lh Dundalk,53.972,-6.29,0, , ,Louth,IRL,,2000,-999,Daily,17,2
242,Lifford,54.825,-7.483,0,Dist.Hosp., ,Donegal,IRL,,1948,1953,Daily,26,2
511,Limerick,52.653,-8.633,20,The Crescent, ,Limerick,IRL,,1926,1955,Daily,5,2
1011,Limerick,52.657,-8.618,16,Mulgrave St., ,Limerick,IRL,,1895,1967,Daily,5,2
2611,Limerick,52.656,-8.633,16,Ocurry St.G.S., ,Limerick,IRL,,1944,1977,Daily,5,2
4411,Limerick,52.655,-8.62,10,Sexton St.C.B.S., ,Limerick,IRL,,1962,1966,Daily,5,2
5011,Limerick,52.641,-8.59,27,Old Cork Road, ,Limerick,IRL,,1984,1995,Daily,5,2
5611,Limerick,52.621,-8.623,22,Golf Club, ,Limerick,IRL,,1990,1995,Daily,5,2
6719,Limerick Junction ,52.504,-8.204,93,Solohead, ,Tipperary,IRL,,1996,-999,Daily,4,2
1018,Lisacasey,52.74,-9.152,77, , ,Clare,IRL,,1943,1988,Daily,6,2
1617,Lisdoonvarna,53.039,-9.192,170,Cahermacnaghten, ,Clare,IRL,,1985,2005,Daily,6,2
2921,Lisdoonvarna ,53.021,-9.306,87,Treatment-Plant, ,Clare,IRL,,2005,-999,Daily,6,2
4635,Lisglennon Waterworks,54.186,-9.223,51, , ,Mayo,IRL,,1987,-999,Daily,21,2
4702,Lisheen,51.521,-9.388,49, , ,Cork,IRL,,1997,2016,Daily,1,2
4702,Lisheen,51.521,-9.388,49, , ,Cork,IRL,,1997,-999,Daily,1,2
8506,Lismore,52.134,-7.924,45, , ,Waterford,IRL,,2003,2012,Daily,3,2
336,Lissadell,54.352,-8.558,21, , ,Sligo,IRL,,1951,1957,Daily,22,2
1010,Listowel,52.437,-9.442,51,Trans.Stn., ,Kerry,IRL,,1941,1972,Daily,2,2
1110,Listowel,52.442,-9.485,15, , ,Kerry,IRL,,1941,1983,Daily,2,2
1810,Listowel,52.392,-9.487,108,Rathea, ,Kerry,IRL,,1948,1982,Daily,2,2
2010,Listowel,52.468,-9.535,11,Inch, ,Kerry,IRL,,1955,2015,Daily,2,2
2210,Listowel,52.451,-9.486,29,St.Michaels Coll., ,Kerry,IRL,,1974,1979,Daily,2,2
2310,Listowel,52.436,-9.453,69,Grogeen, ,Kerry,IRL,,1979,2004,Daily,2,2
3010,Listowel ,52.372,-9.468,144,Gurtocloghane, ,Kerry,IRL,,2000,-999,Daily,2,2
3410,Listowel-Bunaghara,52.439,-9.42,24, , ,Kerry,IRL,,2013,-999,Daily,2,2
6504,Little Island,51.909,-8.353,15, , ,Cork,IRL,,1999,-999,Daily,1,2
4412,Littleton,52.626,-7.706,121, , ,Tipperary,IRL,,1950,1982,Daily,4,2
6712,Littleton Ii B. Na M.,52.607,-7.7,130, , ,Tipperary,IRL,,1982,-999,Daily,4,2
1910,Lixnaw,52.402,-9.609,6, , ,Kerry,IRL,,1951,1985,Daily,2,2
2510,Lixnaw Garrynagore,52.367,-9.636,15, , ,Kerry,IRL,,1985,1999,Daily,2,2
6206,Lombardstown ,52.091,-8.784,161,Drompeach, ,Cork,IRL,,1985,-999,Daily,1,2
8806,Lombardstown-Gortmore,52.106,-8.808,174, , ,Cork,IRL,,2008,-999,Daily,1,2
4429,Longford,53.721,-7.786,70,St. Josephs Hospital, ,Longford,IRL,,1954,1988,Daily,18,2
5329,Longford,53.719,-7.772,84,Knockahaw, ,Longford,IRL,,1975,1980,Daily,18,2
1631,Longwood,53.452,-6.923,65, , ,Meath,IRL,,1943,1986,Daily,15,2
3319,Lorrha,53.088,-8.12,38, , ,Tipperary,IRL,,1943,1983,Daily,4,2
3236,Lough Arrow,54.092,-8.343,65, , ,Sligo,IRL,,1992,2001,Daily,22,2
1924,Lough Bray Cottage,53.185,-6.29,371, , ,Wicklow,IRL,,1962,1979,Daily,9,2
620,Lough Dan,53.053,-6.27,205, , ,Wicklow,IRL,,1948,1973,Daily,9,2
1820,Lough Dan,53.052,-6.272,227,Oldbridge, ,Wicklow,IRL,,1975,1997,Daily,9,2
240,Lough Eske,54.673,-7.971,311,Clogher, ,Donegal,IRL,,1953,1957,Daily,26,2
1840,Lough Eske,54.725,-8.038,32,Edergole, ,Donegal,IRL,,1953,2008,Daily,26,2
1940,Lough Eske,54.684,-8.051,35,Drimnacarry, ,Donegal,IRL,,1953,2008,Daily,26,2
2040,Lough Eske,54.7,-7.983,136,Keadue, ,Donegal,IRL,,1953,1982,Daily,26,2
2636,Lough Gill,54.235,-8.436,38, , ,Sligo,IRL,,1984,-999,Daily,22,2
3336,Lough Glencar,54.334,-8.353,43, , ,Leitrim,IRL,,1993,-999,Daily,23,2
4037,Lough Gowna,53.873,-7.522,68,Glenbrook, ,Cavan,IRL,,1973,2009,Daily,24,2
3602,Lough Hyne,51.504,-9.3,2, , ,Cork,IRL,,1976,1977,Daily,1,2
1620,Lough Nahanagan,53.026,-6.384,572, , ,Wicklow,IRL,,1965,1995,Daily,9,2
943,Lough Salt,55.073,-7.804,232, , ,Donegal,IRL,,1968,1972,Daily,26,2
1041,Loughanure,54.826,-8.287,264,Voc.Sch., ,Donegal,IRL,,1950,1965,Daily,26,2
1128,Loughglinn,53.82,-8.553,89, , ,Roscommon,IRL,,1944,-999,Daily,20,2
1021,Loughrea,53.192,-8.57,79, , ,Galway,IRL,,1943,1998,Daily,19,2
2721,Loughrea,53.207,-8.56,86,Rathruddy West, ,Galway,IRL,,1998,-999,Daily,19,2
433,Louisburgh,53.772,-9.772,27,Old Head Hotel, ,Mayo,IRL,,1930,1973,Daily,21,2
633,Louisburgh,53.758,-9.805,7, , ,Mayo,IRL,,1942,1991,Daily,21,2
1238,Louth,53.952,-6.535,47, , ,Louth,IRL,,1943,1990,Daily,17,2
4823,Lucan,53.353,-6.45,40, , ,Dublin,IRL,,1949,1982,Daily,14,2
7623,Lucan,53.368,-6.469,51,U.C.D., ,Dublin,IRL,,1972,1984,Daily,14,2
9423,Lucan,53.357,-6.435,48,Hermitage G.C., ,Dublin,IRL,,1999,1999,Daily,14,2
2020,Luggala Gate Lodge,53.1,-6.257,410, , ,Wicklow,IRL,,1981,1984,Daily,9,2
2514,Lullymore,53.303,-6.933,81,Bord Na Mona, ,Kildare,IRL,,1945,1992,Daily,13,2
4314,Lullymore,53.276,-6.955,75,Agr.Res.Stn., ,Kildare,IRL,,1963,1990,Daily,13,2
7214,Lullymore Nature Centre,53.274,-6.939,79, , ,Kildare,IRL,,2010,-999,Daily,13,2
432,Lusk,53.542,-6.219,28,Nevitt, ,Dublin,IRL,,1923,1982,Daily,14,2
632,Lusk,53.522,-6.159,22, , ,Dublin,IRL,,1949,2012,Daily,14,2
1732,Lusk Nevitt Ii,53.542,-6.217,25, , ,Dublin,IRL,,1982,1992,Daily,14,2
1505,Lyranes,51.99,-9.854,161,Caragh River Area, ,Kerry,IRL,,1949,1969,Daily,2,2
3305,Lyranes-Upper,52.001,-9.854,83,Caragh Rvr.Area, ,Kerry,IRL,,1969,1990,Daily,2,2
510,Lyreacrumpane,52.353,-9.487,122, , ,Kerry,IRL,,1939,1964,Daily,2,2
1510,Lyreacrumpane,52.303,-9.503,177,Reenagown, ,Kerry,IRL,,1947,2011,Daily,2,2
2110,Lyreacrumpane,52.323,-9.502,185,Carrigcannon, ,Kerry,IRL,,1964,1985,Daily,2,2
9620,M.Aughavannagh,52.923,-6.386,407,Slievemaan For, ,Wicklow,IRL,,1964,1966,Daily,9,2
8820,M.Aughrim,52.908,-6.387,307,Carrickashane, ,Wicklow,IRL,,1953,1962,Daily,9,2
9005,M.Ballaghbeama Gap,51.939,-9.807,342, , ,Kerry,IRL,,1949,-999,Daily,2,2
9105,M.Ballaghisheen Gap,51.942,-9.933,405, , ,Kerry,IRL,,1949,1990,Daily,2,2
18723,M.Ballinagee,53.056,-6.442,290, , ,Wicklow,IRL,,1971,1993,Daily,9,2
19023,M.Ballinatona,53.158,-6.422,268, , ,Wicklow,IRL,,1937,-999,Daily,9,2
9604,M.Ballingeary ,51.887,-9.25,279,Meelin-Mtn., ,Cork,IRL,,1948,-999,Daily,1,2
9704,M.Ballingeary ,51.822,-9.257,293,Tooreenaneen, ,Cork,IRL,,1948,-999,Daily,1,2
9804,M.Ballyvourney ,51.97,-9.22,375,Knockacommeen, ,Cork,IRL,,1948,-999,Daily,1,2
9812,M.Bansha,52.403,-8.102,169,Rossadrehid, ,Tipperary,IRL,,1938,1962,Daily,4,2
8905,M.Beenreagh Mtn.,52.003,-9.95,449, , ,Kerry,IRL,,1949,-999,Daily,2,2
9936,M.Beltra Forest,54.183,-8.633,167, , ,Sligo,IRL,,1995,-999,Daily,22,2
9815,M.Blackstairs Mountain,52.542,-6.791,408, , ,Wexford,IRL,,1984,1990,Daily,7,2
9914,M.Blackstairs Mtns.,52.589,-6.787,461,Knockroe, ,Carlow,IRL,,1950,2000,Daily,10,2
19123,M.Brockey Lodge,53.155,-6.358,355, , ,Wicklow,IRL,,1937,1993,Daily,9,2
9602,M.Cape Clear Bird Observations,51.437,-9.504,27, , ,Cork,IRL,,1985,1988,Daily,1,2
9702,M.Coolkelure,51.734,-9.192,137,Dromdrasdil, ,Cork,IRL,,1948,1949,Daily,1,2
9802,M.Coolkelure,51.708,-9.218,243,Pigs Hill, ,Cork,IRL,,1948,1949,Daily,1,2
9907,M.Crohaun,52.154,-7.592,377, , ,Waterford,IRL,,1984,-999,Daily,3,2
9103,M.Cummeragh No.1,51.875,-10.018,109, , ,Kerry,IRL,,1942,-999,Daily,2,2
9203,M.Cummeragh No.2,51.872,-9.983,380, , ,Kerry,IRL,,1942,-999,Daily,2,2
9303,M.Cummeragh No.3,51.868,-9.971,528, , ,Kerry,IRL,,1942,-999,Daily,2,2
9403,M.Cummeragh No.4,51.856,-10.002,564, , ,Kerry,IRL,,1942,-999,Daily,2,2
9503,M.Cummeragh No.5,51.852,-10.055,453, , ,Kerry,IRL,,1942,-999,Daily,2,2
9603,M.Cummeragh No.6,51.907,-9.984,257, , ,Kerry,IRL,,1942,1989,Daily,2,2
9703,M.Cummeragh No.7,51.904,-9.937,570, , ,Kerry,IRL,,1942,1983,Daily,2,2
9903,M.Cummeragh No.7a,51.901,-9.991,205, , ,Kerry,IRL,,1977,1989,Daily,2,2
9803,M.Cummeragh No.8,51.853,-10.106,56, , ,Kerry,IRL,,1942,1989,Daily,2,2
19223,M.Currough No.2,53.018,-6.522,487, , ,Wicklow,IRL,,1937,1967,Daily,9,2
18823,M.Currough No.2a,53.038,-6.553,441, , ,Wicklow,IRL,,1967,1997,Daily,9,2
9020,M.Djouce Mtn.,53.125,-6.237,584, , ,Wicklow,IRL,,1948,1978,Daily,9,2
9931,M.Donadea Forest,53.488,-6.87,74, , ,Meath,IRL,,1995,2005,Daily,15,2
