KeyID,Name,No,Longitude,Latitude,Elev,Network
Yr Alward,Alward,9301,-65.445,46.2,123,PrivateFire
Yr Anfield,Anfield,9516,-67.45667,46.90833,250,PrivateFire
Yr Apohaqui,Apohaqui,9302,-65.59,45.69667,140,PrivateFire
Yr Bantalor,Bantalor,9423,-66.425,46.21833,165,PrivateFire
Yr Bayles Lake,Bayles Lake,9213,-66.355,47.08167,518,PrivateFire
Yr Big Tracadie,Big Tracadie,9109,-65.265,47.41167,73,PrivateFire
Yr Boston Brook,Boston Brook,9513,-67.625,47.45333,304,PrivateFire
Yr Brockway,Brockway,9419,-67.09833,45.57333,91,PrivateFire
Yr Clearwater,Clearwater,9408,-66.82833,46.715,410,PrivateFire
Yr County Line,County Line,9418,-67.305,46.13167,199,PrivateFire
Yr Crowe Brook,Crowe Brook,9316,-65.32333,45.575,292,PrivateFire
Yr Cumberland Bay,Cumberland Bay,9314,-65.90833,45.995,59,PrivateFire
Yr Dingee Brook,Dingee Brook,9518,-67.12833,46.98167,410,PrivateFire
Yr Dungarvon,Dungarvon,9215,-66.30667,46.71667,172,PrivateFire
Yr Florenceville,Florenceville,9520,-67.64,46.445,136,PrivateFire
Yr Heath Steele,Heath Steele,9212,-66.035,47.30333,326,PrivateFire
Yr Hornes Gulch,Hornes Gulch,9511,-67.91,47.83333,370,PrivateFire
Yr Kagout Brook,Kagout Brook,9114,-66.57167,47.23333,650,PrivateFire
Yr Lunts Brook,Lunts Brook,9515,-68.215,47.50833,318,PrivateFire
Yr McRae Lake,McRae Lake,9113,-66.24333,47.685,404,PrivateFire
Yr Meadow Brook,Meadow Brook,9313,-65.80333,46.44833,199,PrivateFire
Yr Mulligan Gulch,Mulligan Gulch,9107,-66.63833,47.59333,432,PrivateFire
Yr Quarryville,Quarryville,9216,-65.77167,46.825,50,PrivateFire
Yr Robinson Tower,Robinson Tower,9517,-67.18833,47.69667,467,PrivateFire
Yr Saint Paul,Saint Paul,9306,-64.97333,46.36,76,PrivateFire
NB002,Sussex,,45.69,-65.5416666666667,140,PublicFire
NB004,Cundy Lake,,45.37425,-66.6546,242,PublicFire
NB009,Popple Depot,,47.3972166666667,-66.5133333333333,250,PublicFire
NB013,Long Lake,,46.9666666666667,-66.9166666666667,410,PublicFire
NB041,Gagetown,,45.7833333333333,-66.1166666666667,10,PublicFire
NB101,Charlo Airport,,47.9905,-66.3313333333333,40,PublicFire
NB102,Kedgwick,,47.6458333333333,-67.345,280,PublicFire
NB103,Balmoral,,47.95,-66.4833333333333,170,PublicFire
NB104,Nash Creek,,45.9166666666667,-66.0833333333333,20,PublicFire
NB105,Allardville,,47.4666666666667,-65.4833333333333,160,PublicFire
NB106,Caraquet,,47.8,-64.8333333333333,5,PublicFire
NB107,Mulligan Gulch,,47.5933333333333,-66.6385666666667,432,PublicFire
NB108,Miscou Island,,48.0166666666667,-64.5,4,PublicFire
NB109,Big Tracadie,,47.4116333333333,-65.2664166666667,73,PublicFire
NB110,Tracadie,,47.5327833333333,-64.91945,20,PublicFire
NB111,Charlo Camp,,45.8333333333333,-66.45,320,PublicFire
NB112,Bathurst Airport,,47.62985,-65.73875,59,PublicFire
NB113,McRae Lake,,47.68515,-66.24355,404,PublicFire
NB114,Kagout Brook,,47.2341833333333,-66.57115,650,PublicFire
NB115,Petit Ouest,,47.6383333333333,-67.435,260,PublicFire
NB201,Boiestown,,46.4583333333333,-66.4125,80,PublicFire
NB202,McGraw Brook,,46.8333333333333,-66.1,65,PublicFire
NB203,Doaktown,,47.5641666666667,-66.1152833333333,80,PublicFire
NB204,Sunny Corner,,46.9483333333333,-65.8172166666667,30,PublicFire
NB205,Rogersville,,46.7833333333333,-65.4433333333333,70,PublicFire
NB206,St Louis de Kent,,46.7366666666667,-64.9666666666667,23,PublicFire
NB208,Miramichi Airport,,47.0063833333333,-65.4572166666667,34,PublicFire
NB210,Dunphy,,46.6266666666667,-65.8727833333333,30,PublicFire
NB211,Kouchibouquac,,46.7711666666667,-65.0029666666667,34,PublicFire
NB212,Heath Steele,,47.3038,-66.0356666666667,326,PublicFire
NB213,Bayles Lake,,47.0819666666667,-66.3553166666667,518,PublicFire
NB215,Dungarvon,,46.7170333333333,-66.3069,165,PublicFire
NB216,Quarryville,,46.8252333333333,-65.77185,50,PublicFire
NB301,Alward,,46.1992,-65.4446333333333,123,PublicFire
NB302,Apohaqui,,45.69595,-65.59035,140,PublicFire
NB303,Coles Island,,45.9333333333333,-65.8066666666667,40,PublicFire
NB304,Petitcodiac,,45.92555,-65.1861166666667,25,PublicFire
NB305,Chipman,,46.1861166666667,-65.8625,15,PublicFire
NB306,St. Paul,,46.3640333333333,-64.9763166666667,76,PublicFire
NB307,Moncton Airport,,46.1123666666667,-64.6827,71,PublicFire
NB308,Saint John Airport,,45.3162,-65.8903333333333,109,PublicFire
NB309,Salmon River,,46.2833333333333,-65.7166666666667,110,PublicFire
NB310,Aulac,,45.8666666666667,-64.2833333333333,20,PublicFire
NB311,Alma,,45.6,-64.9666666666667,43,PublicFire
NB312,Wolf Lake,,45.6666666666667,-65.15,305,PublicFire
NB313,Meadow Brook,,46.4482,-65.8037666666667,199,PublicFire
NB314,Cumberland Bay,,45.9942833333333,-65.90845,59,PublicFire
NB315,Babcock Brook,,45.73,-65.065,140,PublicFire
NB316,Crowe Brook,,45.5745333333333,-65.3229333333333,292,PublicFire
NB401,St. Stephen Airport,,45.2075333333333,-67.2505833333333,29,PublicFire
NB404,Kingsclear,,45.9666666666667,-66.8,50,PublicFire
NB405,Gordonsville,,46.4666666666667,-67.5,210,PublicFire
NB406,Stanley,,46.2708333333333,-66.675,60,PublicFire
NB407,Acadia,,45.9916666666667,-66.3616666666667,80,PublicFire
NB408,Clearwater,,46.71445,-66.8265166666667,396,PublicFire
NB409,Mt Pleasant,,45.2666666666667,-67.0166666666667,50,PublicFire
NB410,Fredericton Airport,,45.8694666666667,-66.5316666666667,20,PublicFire
NB411,"Houlton,ME",,46.12305,-67.79195,190,PublicFire
NB412,Camp 84,,46.3616666666667,-66.7633333333333,95,PublicFire
NB413,Oromocto Lake,,45.5583333333333,-66.9916666666667,120,PublicFire
NB414,Narrows Mtn Bk,,46.2925,-67.0233333333333,190,PublicFire
NB415,Stanley Mtn,,46.8833333333333,-67.05,580,PublicFire
NB416,Juniper,,46.56,-67.1683333333333,260,PublicFire
NB417,Forestry Complex,,45.93305,-66.6586166666667,110,PublicFire
NB418,County Line,,46.13255,-67.3042833333333,199,PublicFire
NB419,Brockway,,45.5734333333333,-67.09875,84,PublicFire
NB420,CFB Tower 1,,45.7383333333333,-66.3516666666667,86,PublicFire
NB421,CFB Tower 2,,45.605,-66.2216666666667,177,PublicFire
NB422,CFB Tower 3,,45.5583333333333,-66.415,193,PublicFire
NB423,Bantalor,,46.218,-66.42445,156,PublicFire
NB424,Canterbury,,45.8705,-67.4806666666667,200,PublicFire
NB425,Oak Hill,,45.3375,-67.3333333333333,160,PublicFire
NB501,Saint Joseph,,47.4866666666667,-68.47,150,PublicFire
NB503,Plaster Rock,,46.89305,-67.3961166666667,160,PublicFire
NB504,Bubar Brook,,46.3166666666667,-67.5,70,PublicFire
NB505,St Quentin,,47.5133333333333,-67.3841666666667,280,PublicFire
NB508,St. Leonard Airport,,47.15745,-67.83475,243,PublicFire
NB509,Rafting Ground,,47.91,-66.9466666666667,15,PublicFire
NB510,Mount Carleton,,47.4166666666667,-66.9333333333333,265,PublicFire
NB511,Hornes Gulch,,47.8330666666667,-67.9100166666667,370,PublicFire
NB512,Nictau,,47.2316666666667,-67.1527833333333,170,PublicFire
NB513,Boston Brook,,47.44995,-67.61655,289,PublicFire
NB514,Bon Accord,,46.6522166666667,-67.5816666666667,440,PublicFire
NB515,Lunts Brook,,47.5076,-68.2139333333333,318,PublicFire
NB516,Anfield,,46.9075,-67.4571,250,PublicFire
NB517,Robinson Tower,,47.6965,-67.1876,460,PublicFire
NB518,Dingee Brook,,46.9813,-67.1276333333333,410,PublicFire
NB520,Florenceville,,46.4443833333333,-67.6403833333333,136,PublicFire
NB611,Grand Manan,,44.7133333333333,-66.7963666666667,72,PublicFire
NB618,Amherst,,45.8136666666667,-64.2358666666667,24,PublicFire
NB619,Pt. Lepreau,,45.0666666666667,-66.45,6,PublicFire
NB620,Miscou,,48.0166666666667,-64.5,4,PublicFire
